$GPGGA,090720.000,4825.2039,N,00428.3415,W,1,08,1.0,129.2,M,52.0,M,,0000*4A
$GPGSA,A,3,09,02,07,23,30,05,29,16,,,,,1.9,1.0,1.6*3B
$GPRMC,090720.000,A,4825.2039,N,00428.3415,W,0.52,101.62,050218,,,A*73
$GPGGA,090721.000,4825.2040,N,00428.3415,W,1,08,1.0,129.5,M,52.0,M,,0000*42
$GPGSA,A,3,09,02,07,23,30,05,29,16,,,,,1.9,1.0,1.6*3B
$GPRMC,090721.000,A,4825.2040,N,00428.3415,W,0.43,101.62,050218,,,A*7C
$GPGGA,090722.000,4825.2041,N,00428.3415,W,1,08,1.0,129.8,M,52.0,M,,0000*4D
$GPGSA,A,3,09,02,07,23,30,05,29,16,,,,,1.9,1.0,1.6*3B
$GPRMC,090722.000,A,4825.2041,N,00428.3415,W,0.68,101.62,050218,,,A*77
$GPGGA,090723.000,4825.2043,N,00428.3416,W,1,07,1.0,130.6,M,52.0,M,,0000*44
$GPGSA,A,3,09,07,23,30,05,29,16,,,,,,2.0,1.0,1.8*3D
$GPGSV,3,1,12,09,65,060,17,07,47,145,10,23,29,063,17,30,29,170,09*79
$GPGSV,3,2,12,05,23,293,26,29,08,332,37,16,08,050,20,02,51,279,04*70
$GPGSV,3,3,12,26,04,023,16,04,70,153,,06,54,207,,57,10,126,*7C
$GPRMC,090723.000,A,4825.2043,N,00428.3416,W,0.70,101.62,050218,,,A*7E
$GPGGA,090724.000,4825.2045,N,00428.3415,W,1,07,1.0,131.2,M,52.0,M,,0000*43
$GPGSA,A,3,09,07,23,30,05,29,16,,,,,,2.0,1.0,1.8*3D
$GPRMC,090724.000,A,4825.2045,N,00428.3415,W,0.73,101.62,050218,,,A*7F
$GPGGA,090725.000,4825.2048,N,00428.3414,W,1,07,1.0,131.5,M,52.0,M,,0000*49
$GPGSA,A,3,09,07,23,30,05,29,16,,,,,,2.0,1.0,1.8*3D
$GPRMC,090725.000,A,4825.2048,N,00428.3414,W,0.70,101.62,050218,,,A*71
$GPGGA,090726.000,4825.2049,N,00428.3413,W,1,07,1.0,131.8,M,52.0,M,,0000*41
$GPGSA,A,3,09,07,23,30,05,29,16,,,,,,2.0,1.0,1.8*3D
$GPRMC,090726.000,A,4825.2049,N,00428.3413,W,0.64,101.62,050218,,,A*71
$GPGGA,090727.000,4825.2051,N,00428.3411,W,1,07,1.0,132.2,M,52.0,M,,0000*42
$GPGSA,A,3,09,07,23,30,05,29,16,,,,,,2.0,1.0,1.8*3D
$GPRMC,090727.000,A,4825.2051,N,00428.3411,W,1.11,101.62,050218,,,A*78
$GPGGA,090728.000,4825.2050,N,00428.3413,W,1,06,1.1,132.5,M,52.0,M,,0000*49
$GPGSA,A,3,09,23,30,05,29,16,,,,,,,2.1,1.1,1.8*3A
$GPGSV,3,1,12,09,65,060,18,23,29,063,17,30,29,170,10,05,23,293,26*73
$GPGSV,3,2,12,29,08,332,37,16,08,050,19,02,51,279,04,07,47,145,08*7E
$GPGSV,3,3,12,26,04,023,15,04,70,153,,06,54,207,,57,10,126,*7F
$GPRMC,090728.000,A,4825.2050,N,00428.3413,W,0.70,101.62,050218,,,A*72
$GPGGA,090729.000,4825.2049,N,00428.3416,W,1,06,1.1,132.7,M,52.0,M,,0000*47
$GPGSA,A,3,09,23,30,05,29,16,,,,,,,2.1,1.1,1.8*3A
$GPRMC,090729.000,A,4825.2049,N,00428.3416,W,0.59,101.62,050218,,,A*75
$GPGGA,090730.000,4825.2050,N,00428.3420,W,1,06,1.1,133.2,M,52.0,M,,0000*46
$GPGSA,A,3,09,23,30,05,29,16,,,,,,,2.1,1.1,1.8*3A
$GPRMC,090730.000,A,4825.2050,N,00428.3420,W,0.59,101.62,050218,,,A*70
$GPGGA,090731.000,4825.2050,N,00428.3424,W,1,06,1.1,133.7,M,52.0,M,,0000*46
$GPGSA,A,3,09,23,30,05,29,16,,,,,,,2.1,1.1,1.8*3A
$GPRMC,090731.000,A,4825.2050,N,00428.3424,W,0.54,101.62,050218,,,A*78
$GPGGA,090732.000,4825.2052,N,00428.3427,W,1,07,1.0,134.3,M,52.0,M,,0000*47
$GPGSA,A,3,09,07,23,30,05,29,16,,,,,,2.0,1.0,1.8*3D
$GPRMC,090732.000,A,4825.2052,N,00428.3427,W,0.39,101.62,050218,,,A*71
$GPGGA,090733.000,4825.2053,N,00428.3431,W,1,07,1.0,134.9,M,52.0,M,,0000*4A
$GPGSA,A,3,09,07,23,30,05,29,16,,,,,,2.0,1.0,1.8*3D
$GPGSV,3,1,12,09,65,060,18,07,47,145,10,23,29,063,18,30,29,170,11*70
$GPGSV,3,2,12,05,23,293,27,29,08,332,36,16,08,050,20,02,51,279,04*70
$GPGSV,3,3,12,26,04,023,12,04,70,153,,06,54,207,,57,10,126,*78
$GPRMC,090733.000,A,4825.2053,N,00428.3431,W,0.61,101.62,050218,,,A*7B
$GPGGA,090734.000,4825.2055,N,00428.3433,W,1,07,1.0,135.2,M,52.0,M,,0000*43
$GPGSA,A,3,09,07,23,30,05,29,16,,,,,,2.0,1.0,1.8*3D
$GPRMC,090734.000,A,4825.2055,N,00428.3433,W,0.40,101.62,050218,,,A*7B
$GPGGA,090735.000,4825.2056,N,00428.3436,W,1,07,1.0,135.6,M,52.0,M,,0000*40
$GPGSA,A,3,09,07,23,30,05,29,16,,,,,,2.0,1.0,1.8*3D
$GPRMC,090735.000,A,4825.2056,N,00428.3436,W,0.39,101.62,050218,,,A*72
$GPGGA,090736.000,4825.2057,N,00428.3438,W,1,07,1.0,135.8,M,52.0,M,,0000*42
$GPGSA,A,3,09,07,23,30,05,29,16,,,,,,2.0,1.0,1.8*3D
$GPRMC,090736.000,A,4825.2057,N,00428.3438,W,0.29,101.62,050218,,,A*7F
$GPGGA,090737.000,4825.2057,N,00428.3439,W,1,07,1.0,136.0,M,52.0,M,,0000*49
$GPGSA,A,3,09,07,23,30,05,29,16,,,,,,2.0,1.0,1.8*3D
$GPRMC,090737.000,A,4825.2057,N,00428.3439,W,0.30,101.62,050218,,,A*77
$GPGGA,090738.000,4825.2057,N,00428.3440,W,1,07,1.0,136.2,M,52.0,M,,0000*4A
$GPGSA,A,3,09,07,23,30,05,29,16,,,,,,2.0,1.0,1.8*3D
$GPGSV,3,1,12,09,65,060,19,07,47,145,12,23,29,063,19,30,29,170,10*73
$GPGSV,3,2,12,05,23,293,27,29,08,332,34,16,08,050,19,02,51,279,04*78
$GPGSV,3,3,12,26,04,023,12,04,70,153,,06,54,207,,57,10,126,*78
$GPRMC,090738.000,A,4825.2057,N,00428.3440,W,0.42,101.62,050218,,,A*73
$GPGGA,090739.000,4825.2058,N,00428.3441,W,1,07,1.0,136.3,M,52.0,M,,0000*44
$GPGSA,A,3,09,07,23,30,05,29,16,,,,,,2.0,1.0,1.8*3D
$GPRMC,090739.000,A,4825.2058,N,00428.3441,W,0.26,101.62,050218,,,A*7E
$GPGGA,090740.000,4825.2058,N,00428.3443,W,1,07,1.0,136.5,M,52.0,M,,0000*4E
$GPGSA,A,3,09,07,23,30,05,29,16,,,,,,2.0,1.0,1.8*3D
$GPRMC,090740.000,A,4825.2058,N,00428.3443,W,0.22,101.62,050218,,,A*76
$GPGGA,090741.000,4825.2058,N,00428.3444,W,1,07,1.0,136.5,M,52.0,M,,0000*48
$GPGSA,A,3,09,07,23,30,05,29,16,,,,,,2.0,1.0,1.8*3D
$GPRMC,090741.000,A,4825.2058,N,00428.3444,W,0.19,101.62,050218,,,A*78
$GPGGA,090742.000,4825.2058,N,00428.3446,W,1,07,1.0,136.7,M,52.0,M,,0000*4B
$GPGSA,A,3,09,07,23,30,05,29,16,,,,,,2.0,1.0,1.8*3D
$GPRMC,090742.000,A,4825.2058,N,00428.3446,W,0.20,101.62,050218,,,A*73
$GPGGA,090743.000,4825.2059,N,00428.3446,W,1,07,1.0,136.9,M,52.0,M,,0000*45
$GPGSA,A,3,09,07,23,30,05,29,16,,,,,,2.0,1.0,1.8*3D
$GPGSV,3,1,12,09,65,060,19,07,47,145,13,23,29,063,19,30,29,170,12*70
$GPGSV,3,2,12,05,23,293,28,29,08,332,35,16,08,050,18,26,04,023,11*78
$GPGSV,3,3,12,04,70,153,,06,54,207,,02,51,279,,57,10,126,*70
$GPRMC,090743.000,A,4825.2059,N,00428.3446,W,0.30,101.62,050218,,,A*72
$GPGGA,090744.000,4825.2058,N,00428.3446,W,1,07,1.0,136.9,M,52.0,M,,0000*43
$GPGSA,A,3,09,07,23,30,05,29,16,,,,,,2.0,1.0,1.8*3D
$GPRMC,090744.000,A,4825.2058,N,00428.3446,W,0.36,101.62,050218,,,A*72
$GPGGA,090745.000,4825.2057,N,00428.3447,W,1,07,1.0,136.7,M,52.0,M,,0000*42
$GPGSA,A,3,09,07,23,30,05,29,16,,,,,,2.0,1.0,1.8*3D
$GPRMC,090745.000,A,4825.2057,N,00428.3447,W,0.31,101.62,050218,,,A*7A
$GPGGA,090746.000,4825.2055,N,00428.3450,W,1,07,1.0,136.4,M,52.0,M,,0000*46
$GPGSA,A,3,09,07,23,30,05,29,16,,,,,,2.0,1.0,1.8*3D
$GPRMC,090746.000,A,4825.2055,N,00428.3450,W,0.39,101.62,050218,,,A*75
$GPGGA,090747.000,4825.2053,N,00428.3452,W,1,07,1.0,135.9,M,52.0,M,,0000*4D
$GPGSA,A,3,09,07,30,23,05,29,16,,,,,,2.0,1.0,1.8*3D
$GPRMC,090747.000,A,4825.2053,N,00428.3452,W,0.37,101.62,050218,,,A*7E
$GPGGA,090748.000,4825.2052,N,00428.3453,W,1,07,1.0,135.6,M,52.0,M,,0000*4D
$GPGSA,A,3,09,07,30,23,05,29,16,,,,,,2.0,1.0,1.8*3D
$GPGSV,3,1,12,09,64,060,20,07,48,144,14,30,30,170,12,23,28,063,20*71
$GPGSV,3,2,12,05,24,294,29,29,08,331,36,16,08,049,19,26,04,022,13*73
$GPGSV,3,3,12,04,71,150,,06,53,206,,02,51,277,,57,10,127,*7B
$GPRMC,090748.000,A,4825.2052,N,00428.3453,W,0.30,101.62,050218,,,A*76
$GPGGA,090749.000,4825.2051,N,00428.3453,W,1,07,1.0,135.4,M,52.0,M,,0000*4D
$GPGSA,A,3,09,07,30,23,05,29,16,,,,,,2.0,1.0,1.8*3D
$GPRMC,090749.000,A,4825.2051,N,00428.3453,W,0.32,101.62,050218,,,A*76
$GPGGA,090750.000,4825.2049,N,00428.3453,W,1,07,1.0,135.3,M,52.0,M,,0000*4B
$GPGSA,A,3,09,07,30,23,05,29,16,,,,,,2.0,1.0,1.8*3D
$GPRMC,090750.000,A,4825.2049,N,00428.3453,W,0.37,101.62,050218,,,A*72
$GPGGA,090751.000,4825.2049,N,00428.3453,W,1,06,1.6,135.3,M,52.0,M,,0000*4D
$GPGSA,A,3,09,07,23,05,29,16,,,,,,,2.7,1.6,2.2*36
$GPRMC,090751.000,A,4825.2049,N,00428.3453,W,0.36,101.62,050218,,,A*72
$GPGGA,090752.000,4825.2049,N,00428.3452,W,1,06,1.6,135.1,M,52.0,M,,0000*4D
$GPGSA,A,3,09,07,23,05,29,16,,,,,,,2.7,1.6,2.2*36
$GPRMC,090752.000,A,4825.2049,N,00428.3452,W,0.35,101.62,050218,,,A*73
$GPGGA,090753.000,4825.2049,N,00428.3452,W,1,06,1.6,135.1,M,52.0,M,,0000*4C
$GPGSA,A,3,09,07,23,05,29,16,,,,,,,2.7,1.6,2.2*36
$GPGSV,3,1,12,09,64,060,20,07,48,144,16,23,28,063,19,05,24,294,29*7B
$GPGSV,3,2,12,29,08,331,35,16,08,049,19,02,51,277,12,06,53,206,13*74
$GPGSV,3,3,12,26,04,022,15,30,30,170,04,04,71,150,,57,10,127,*7D
$GPRMC,090753.000,A,4825.2049,N,00428.3452,W,0.25,101.62,050218,,,A*73
$GPGGA,090754.000,4825.2049,N,00428.3452,W,1,06,1.6,135.1,M,52.0,M,,0000*4B
$GPGSA,A,3,09,07,23,05,29,16,,,,,,,2.7,1.6,2.2*36
$GPRMC,090754.000,A,4825.2049,N,00428.3452,W,0.33,101.62,050218,,,A*73
$GPGGA,090755.000,4825.2049,N,00428.3453,W,1,07,1.4,135.0,M,52.0,M,,0000*49
$GPGSA,A,3,09,06,07,23,05,29,16,,,,,,2.6,1.4,2.2*33
$GPRMC,090755.000,A,4825.2049,N,00428.3453,W,0.32,101.62,050218,,,A*72
$GPGGA,090756.000,4825.2050,N,00428.3455,W,1,08,1.3,135.1,M,52.0,M,,0000*4D
$GPGSA,A,3,09,06,02,07,23,05,29,16,,,,,2.4,1.3,2.0*36
$GPRMC,090756.000,A,4825.2050,N,00428.3455,W,0.55,101.62,050218,,,A*7E
$GPGGA,090757.000,4825.2051,N,00428.3457,W,1,07,1.6,135.3,M,52.0,M,,0000*47
$GPGSA,A,3,09,02,07,23,05,29,16,,,,,,2.6,1.6,2.1*36
$GPRMC,090757.000,A,4825.2051,N,00428.3457,W,0.57,101.62,050218,,,A*7E
$GPGGA,090758.000,4825.2052,N,00428.3458,W,1,07,1.6,135.4,M,52.0,M,,0000*43
$GPGSA,A,3,09,02,07,23,05,29,16,,,,,,2.6,1.6,2.1*36
$GPGSV,3,1,12,09,64,060,20,02,51,277,12,07,49,144,15,23,28,063,19*79
$GPGSV,3,2,12,05,24,294,29,29,08,331,35,16,08,049,19,06,53,206,06*70
$GPGSV,3,3,12,26,04,022,15,30,30,170,04,04,71,149,,57,10,127,*75
$GPRMC,090758.000,A,4825.2052,N,00428.3458,W,0.55,101.62,050218,,,A*7F
$GPGGA,090759.000,4825.2052,N,00428.3457,W,1,07,1.6,135.5,M,52.0,M,,0000*4C
$GPGSA,A,3,09,02,07,23,05,29,16,,,,,,2.6,1.6,2.1*36
$GPRMC,090759.000,A,4825.2052,N,00428.3457,W,0.26,101.62,050218,,,A*75
$GPGGA,090800.000,4825.2052,N,00428.3456,W,1,07,1.6,135.5,M,52.0,M,,0000*4E
$GPGSA,A,3,09,02,07,23,05,29,16,,,,,,2.6,1.6,2.1*36
$GPRMC,090800.000,A,4825.2052,N,00428.3456,W,0.66,101.62,050218,,,A*73
$GPGGA,090801.000,4825.2052,N,00428.3455,W,1,07,1.6,135.6,M,52.0,M,,0000*4F
$GPGSA,A,3,09,02,07,23,05,29,16,,,,,,2.6,1.6,2.1*36
$GPRMC,090801.000,A,4825.2052,N,00428.3455,W,0.38,101.62,050218,,,A*7A
$GPGGA,090802.000,4825.2053,N,00428.3456,W,1,07,1.6,135.8,M,52.0,M,,0000*40
$GPGSA,A,3,09,02,07,23,05,29,16,,,,,,2.6,1.6,2.1*36
$GPRMC,090802.000,A,4825.2053,N,00428.3456,W,0.28,101.62,050218,,,A*7A
$GPGGA,090803.000,4825.2053,N,00428.3455,W,1,07,1.6,135.8,M,52.0,M,,0000*42
$GPGSA,A,3,09,02,07,23,05,29,16,,,,,,2.6,1.6,2.1*36
$GPGSV,3,1,12,09,64,060,21,02,51,277,13,07,49,144,14,23,28,063,19*78
$GPGSV,3,2,12,05,24,294,30,29,08,331,35,16,08,049,19,26,04,022,16*7D
$GPGSV,3,3,12,30,30,170,04,04,71,149,,06,53,206,,57,10,127,*75
$GPRMC,090803.000,A,4825.2053,N,00428.3455,W,0.18,101.62,050218,,,A*7B
$GPGGA,090804.000,4825.2053,N,00428.3455,W,1,06,3.8,135.8,M,52.0,M,,0000*48
$GPGSA,A,3,09,02,23,05,29,16,,,,,,,5.1,3.8,3.4*39
$GPRMC,090804.000,A,4825.2053,N,00428.3455,W,0.21,101.62,050218,,,A*76
$GPGGA,090805.000,4825.2053,N,00428.3455,W,1,07,1.6,135.8,M,52.0,M,,0000*44
$GPGSA,A,3,09,02,07,23,05,29,16,,,,,,2.6,1.6,2.1*36
$GPRMC,090805.000,A,4825.2053,N,00428.3455,W,0.26,101.62,050218,,,A*70
$GPGGA,090806.000,4825.2053,N,00428.3453,W,1,07,1.6,135.7,M,52.0,M,,0000*4E
$GPGSA,A,3,09,02,07,23,05,29,16,,,,,,2.6,1.6,2.1*36
$GPRMC,090806.000,A,4825.2053,N,00428.3453,W,0.45,101.62,050218,,,A*70
$GPGGA,090807.000,4825.2052,N,00428.3452,W,1,07,1.6,135.5,M,52.0,M,,0000*4D
$GPGSA,A,3,09,02,07,23,05,29,16,,,,,,2.6,1.6,2.1*36
$GPRMC,090807.000,A,4825.2052,N,00428.3452,W,0.63,101.62,050218,,,A*75
$GPGGA,090808.000,4825.2051,N,00428.3450,W,1,07,1.6,135.3,M,52.0,M,,0000*45
$GPGSA,A,3,09,02,07,23,05,29,16,,,,,,2.6,1.6,2.1*36
$GPGSV,3,1,12,09,64,060,22,02,51,277,12,07,49,144,11,23,28,063,18*7E
$GPGSV,3,2,12,05,24,294,30,29,08,331,36,16,08,049,19,26,04,022,16*7E
$GPGSV,3,3,12,30,30,170,05,04,71,149,,06,53,206,,57,10,127,*74
$GPRMC,090808.000,A,4825.2051,N,00428.3450,W,0.59,101.62,050218,,,A*72
$GPGGA,090809.000,4825.2050,N,00428.3449,W,1,07,1.6,135.1,M,52.0,M,,0000*4F
$GPGSA,A,3,09,02,07,23,05,29,16,,,,,,2.6,1.6,2.1*36
$GPRMC,090809.000,A,4825.2050,N,00428.3449,W,0.17,101.62,050218,,,A*70
$GPGGA,090810.000,4825.2049,N,00428.3450,W,1,07,1.6,134.9,M,52.0,M,,0000*4E
$GPGSA,A,3,09,02,07,23,05,29,16,,,,,,2.6,1.6,2.1*36
$GPRMC,090810.000,A,4825.2049,N,00428.3450,W,0.19,101.62,050218,,,A*76
$GPGGA,090811.000,4825.2048,N,00428.3450,W,1,08,1.0,134.4,M,52.0,M,,0000*4A
$GPGSA,A,3,09,02,07,30,23,05,29,16,,,,,1.9,1.0,1.6*3B
$GPRMC,090811.000,A,4825.2048,N,00428.3450,W,0.19,101.62,050218,,,A*76
$GPGGA,090812.000,4825.2047,N,00428.3449,W,1,08,1.0,134.1,M,52.0,M,,0000*4B
$GPGSA,A,3,09,02,07,30,23,05,29,16,,,,,1.9,1.0,1.6*3B
$GPRMC,090812.000,A,4825.2047,N,00428.3449,W,0.25,101.62,050218,,,A*7D
$GPGGA,090813.000,4825.2045,N,00428.3448,W,1,08,1.0,133.9,M,52.0,M,,0000*46
$GPGSA,A,3,09,02,07,30,23,05,29,16,,,,,1.9,1.0,1.6*3B
$GPGSV,3,1,12,09,64,060,22,02,51,277,11,07,49,144,11,30,30,170,12*7F
$GPGSV,3,2,12,23,28,063,18,05,24,294,30,29,08,331,36,16,08,049,19*7E
$GPGSV,3,3,12,26,04,022,17,04,71,149,,06,53,206,,57,10,127,*71
$GPRMC,090813.000,A,4825.2045,N,00428.3448,W,0.49,101.62,050218,,,A*75
$GPGGA,090814.000,4825.2044,N,00428.3448,W,1,08,1.0,133.7,M,52.0,M,,0000*4E
$GPGSA,A,3,09,02,07,30,23,05,29,16,,,,,1.9,1.0,1.6*3B
$GPRMC,090814.000,A,4825.2044,N,00428.3448,W,0.13,101.62,050218,,,A*7C
$GPGGA,090815.000,4825.2043,N,00428.3446,W,1,08,1.0,133.5,M,52.0,M,,0000*44
$GPGSA,A,3,09,02,07,30,23,05,29,16,,,,,1.9,1.0,1.6*3B
$GPRMC,090815.000,A,4825.2043,N,00428.3446,W,0.43,101.62,050218,,,A*71
$GPGGA,090816.000,4825.2042,N,00428.3445,W,1,08,1.0,133.5,M,52.0,M,,0000*45
$GPGSA,A,3,09,02,07,30,23,05,29,16,,,,,1.9,1.0,1.6*3B
$GPRMC,090816.000,A,4825.2042,N,00428.3445,W,0.45,101.62,050218,,,A*76
$GPGGA,090817.000,4825.2042,N,00428.3444,W,1,08,1.0,133.5,M,52.0,M,,0000*45
$GPGSA,A,3,09,02,07,30,23,05,29,16,,,,,1.9,1.0,1.6*3B
$GPRMC,090817.000,A,4825.2042,N,00428.3444,W,0.28,101.62,050218,,,A*7D
$GPGGA,090818.000,4825.2042,N,00428.3444,W,1,08,1.0,133.6,M,52.0,M,,0000*49
$GPGSA,A,3,09,02,07,30,23,05,29,16,,,,,1.9,1.0,1.6*3B
$GPGSV,3,1,12,09,64,060,22,02,51,277,08,07,49,144,11,30,30,170,11*74
$GPGSV,3,2,12,23,28,063,18,05,24,294,30,29,08,331,37,16,08,049,18*7E
$GPGSV,3,3,12,26,04,022,18,04,71,149,,06,53,206,,57,10,127,*7E
$GPRMC,090818.000,A,4825.2042,N,00428.3444,W,0.18,101.62,050218,,,A*71
$GPGGA,090819.000,4825.2043,N,00428.3445,W,1,07,1.0,133.6,M,52.0,M,,0000*47
$GPGSA,A,3,09,07,30,23,05,29,16,,,,,,2.1,1.0,1.8*3C
$GPRMC,090819.000,A,4825.2043,N,00428.3445,W,0.31,101.62,050218,,,A*7B
$GPGGA,090820.000,4825.2044,N,00428.3446,W,1,07,1.0,133.6,M,52.0,M,,0000*49
$GPGSA,A,3,09,07,30,23,05,29,16,,,,,,2.1,1.0,1.8*3C
$GPRMC,090820.000,A,4825.2044,N,00428.3446,W,0.41,101.62,050218,,,A*72
$GPGGA,090821.000,4825.2045,N,00428.3448,W,1,07,1.0,133.6,M,52.0,M,,0000*47
$GPGSA,A,3,09,07,30,23,05,29,16,,,,,,2.1,1.0,1.8*3C
$GPRMC,090821.000,A,4825.2045,N,00428.3448,W,0.52,101.62,050218,,,A*7E
$GPGGA,090822.000,4825.2045,N,00428.3449,W,1,07,1.0,133.8,M,52.0,M,,0000*4B
$GPGSA,A,3,09,07,30,23,05,29,16,,,,,,2.1,1.0,1.8*3C
$GPRMC,090822.000,A,4825.2045,N,00428.3449,W,0.31,101.62,050218,,,A*79
$GPGGA,090823.000,4825.2046,N,00428.3450,W,1,07,1.0,133.9,M,52.0,M,,0000*40
$GPGSA,A,3,09,07,30,23,05,29,16,,,,,,2.1,1.0,1.8*3C
$GPGSV,3,1,12,09,64,060,22,07,49,144,11,30,30,170,11,23,28,063,18*7F
$GPGSV,3,2,12,05,24,294,31,29,08,331,37,16,08,049,17,02,51,277,04*77
$GPGSV,3,3,12,26,04,022,18,04,71,149,,06,53,206,,57,10,127,*7E
$GPRMC,090823.000,A,4825.2046,N,00428.3450,W,0.46,101.62,050218,,,A*73
$GPGGA,090824.000,4825.2047,N,00428.3452,W,1,07,1.0,134.0,M,52.0,M,,0000*4A
$GPGSA,A,3,09,07,30,23,05,29,16,,,,,,2.1,1.0,1.8*3C
$GPRMC,090824.000,A,4825.2047,N,00428.3452,W,0.45,101.62,050218,,,A*74
$GPGGA,090825.000,4825.2048,N,00428.3453,W,1,07,1.0,134.1,M,52.0,M,,0000*44
$GPGSA,A,3,09,07,30,23,05,29,16,,,,,,2.1,1.0,1.8*3C
$GPRMC,090825.000,A,4825.2048,N,00428.3453,W,0.28,101.62,050218,,,A*70
$GPGGA,090826.000,4825.2048,N,00428.3453,W,1,07,1.0,134.2,M,52.0,M,,0000*44
$GPGSA,A,3,09,07,30,23,05,29,16,,,,,,2.1,1.0,1.8*3C
$GPRMC,090826.000,A,4825.2048,N,00428.3453,W,0.28,101.62,050218,,,A*73
$GPGGA,090827.000,4825.2050,N,00428.3455,W,1,07,1.0,134.5,M,52.0,M,,0000*4D
$GPGSA,A,3,09,07,30,23,05,29,16,,,,,,2.1,1.0,1.8*3C
$GPRMC,090827.000,A,4825.2050,N,00428.3455,W,0.57,101.62,050218,,,A*75
$GPGGA,090828.000,4825.2052,N,00428.3458,W,1,07,1.0,134.8,M,52.0,M,,0000*40
$GPGSA,A,3,09,07,30,23,05,29,16,,,,,,2.1,1.0,1.8*3C
$GPGSV,3,1,12,09,64,060,21,07,49,144,11,30,30,170,10,23,28,063,18*7D
$GPGSV,3,2,12,05,24,294,31,29,08,331,37,16,08,049,17,02,51,277,04*77
$GPGSV,3,3,12,06,53,206,09,26,04,022,18,04,71,149,,57,10,127,*77
$GPRMC,090828.000,A,4825.2052,N,00428.3458,W,0.65,101.62,050218,,,A*74
$GPGGA,090829.000,4825.2053,N,00428.3458,W,1,07,1.0,135.0,M,52.0,M,,0000*49
$GPGSA,A,3,09,07,30,23,05,29,16,,,,,,2.1,1.0,1.8*3C
$GPRMC,090829.000,A,4825.2053,N,00428.3458,W,0.41,101.62,050218,,,A*72
$GPGGA,090830.000,4825.2053,N,00428.3458,W,1,07,1.0,134.9,M,52.0,M,,0000*49
$GPGSA,A,3,09,07,30,23,05,29,16,,,,,,2.1,1.0,1.8*3C
$GPRMC,090830.000,A,4825.2053,N,00428.3458,W,0.31,101.62,050218,,,A*7D
$GPGGA,090831.000,4825.2052,N,00428.3458,W,1,07,1.0,134.8,M,52.0,M,,0000*48
$GPGSA,A,3,09,07,30,23,05,29,16,,,,,,2.1,1.0,1.8*3C
$GPRMC,090831.000,A,4825.2052,N,00428.3458,W,0.29,101.62,050218,,,A*74
$GPGGA,090832.000,4825.2053,N,00428.3460,W,1,07,1.0,134.7,M,52.0,M,,0000*4E
$GPGSA,A,3,09,07,30,23,05,29,16,,,,,,2.1,1.0,1.8*3C
$GPRMC,090832.000,A,4825.2053,N,00428.3460,W,0.42,101.62,050218,,,A*70
$GPGGA,090833.000,4825.2053,N,00428.3461,W,1,07,1.0,134.6,M,52.0,M,,0000*4F
$GPGSA,A,3,09,07,30,23,05,29,16,,,,,,2.1,1.0,1.8*3C
$GPGSV,3,1,12,09,64,060,21,07,49,144,09,30,30,170,10,23,28,063,19*75
$GPGSV,3,2,12,05,24,294,31,29,08,331,37,16,08,049,17,06,53,206,06*75
$GPGSV,3,3,12,26,04,022,17,04,71,149,,02,51,277,,57,10,127,*71
$GPRMC,090833.000,A,4825.2053,N,00428.3461,W,0.42,101.62,050218,,,A*70
$GPGGA,090834.000,4825.2054,N,00428.3465,W,1,07,1.0,134.3,M,52.0,M,,0000*4E
$GPGSA,A,3,09,07,30,23,05,29,16,,,,,,2.1,1.0,1.8*3C
$GPRMC,090834.000,A,4825.2054,N,00428.3465,W,0.85,101.62,050218,,,A*7F
$GPGGA,090835.000,4825.2055,N,00428.3470,W,1,07,1.0,134.3,M,52.0,M,,0000*4A
$GPGSA,A,3,09,07,30,23,05,29,16,,,,,,2.1,1.0,1.8*3C
$GPRMC,090835.000,A,4825.2055,N,00428.3470,W,1.22,333.20,050218,,,A*72
$GPGGA,090836.000,4825.2057,N,00428.3474,W,1,06,1.1,134.2,M,52.0,M,,0000*4E
$GPGSA,A,3,09,30,23,05,29,16,,,,,,,2.1,1.1,1.8*3A
$GPRMC,090836.000,A,4825.2057,N,00428.3474,W,1.21,324.29,050218,,,A*7B
$GPGGA,090837.000,4825.2058,N,00428.3478,W,1,06,1.1,134.1,M,52.0,M,,0000*4F
$GPGSA,A,3,09,30,23,05,29,16,,,,,,,2.1,1.1,1.8*3A
$GPRMC,090837.000,A,4825.2058,N,00428.3478,W,1.05,324.29,050218,,,A*7F
$GPGGA,090838.000,4825.2058,N,00428.3479,W,1,06,1.1,134.0,M,52.0,M,,0000*40
$GPGSA,A,3,09,30,23,05,29,16,,,,,,,2.1,1.1,1.8*3A
$GPGSV,3,1,12,09,64,060,20,30,30,170,11,23,28,063,19,05,24,294,31*79
$GPGSV,3,2,12,29,08,331,37,16,08,049,17,06,53,206,04,07,49,144,04*76
$GPGSV,3,3,12,26,04,022,16,04,71,149,,02,51,277,,57,10,127,*70
$GPRMC,090838.000,A,4825.2058,N,00428.3479,W,0.62,324.29,050218,,,A*71
$GPGGA,090839.000,4825.2058,N,00428.3479,W,1,06,1.1,134.0,M,52.0,M,,0000*41
$GPGSA,A,3,09,30,23,05,29,16,,,,,,,2.1,1.1,1.8*3A
$GPRMC,090839.000,A,4825.2058,N,00428.3479,W,0.43,324.29,050218,,,A*73
$GPGGA,090840.000,4825.2057,N,00428.3478,W,1,06,1.1,134.0,M,52.0,M,,0000*41
$GPGSA,A,3,09,30,23,05,29,16,,,,,,,2.1,1.1,1.8*3A
$GPRMC,090840.000,A,4825.2057,N,00428.3478,W,0.45,324.29,050218,,,A*75
$GPGGA,090841.000,4825.2056,N,00428.3476,W,1,06,1.1,134.0,M,52.0,M,,0000*4F
$GPGSA,A,3,09,30,23,05,29,16,,,,,,,2.1,1.1,1.8*3A
$GPRMC,090841.000,A,4825.2056,N,00428.3476,W,0.33,324.29,050218,,,A*7A
$GPGGA,090842.000,4825.2056,N,00428.3475,W,1,06,1.1,134.0,M,52.0,M,,0000*4F
$GPGSA,A,3,09,30,23,05,29,16,,,,,,,2.1,1.1,1.8*3A
$GPRMC,090842.000,A,4825.2056,N,00428.3475,W,0.38,324.29,050218,,,A*71
$GPGGA,090843.000,4825.2055,N,00428.3473,W,1,05,1.2,134.1,M,52.0,M,,0000*4A
$GPGSA,A,3,09,30,05,29,16,,,,,,,,2.0,1.2,1.6*37
$GPGSV,3,1,12,09,64,060,18,30,30,170,13,05,24,294,31,29,08,331,37*70
$GPGSV,3,2,12,16,08,049,18,02,51,277,06,06,53,206,08,26,04,022,15*7A
$GPGSV,3,3,12,04,71,149,,07,49,144,,23,28,063,,57,10,127,*76
$GPRMC,090843.000,A,4825.2055,N,00428.3473,W,0.43,324.29,050218,,,A*79
$GPGGA,090844.000,4825.2055,N,00428.3474,W,1,05,1.2,134.1,M,52.0,M,,0000*4A
$GPGSA,A,3,09,30,05,29,16,,,,,,,,2.0,1.2,1.6*37
$GPRMC,090844.000,A,4825.2055,N,00428.3474,W,0.24,324.29,050218,,,A*78
$GPGGA,090845.000,4825.2054,N,00428.3474,W,1,05,1.2,134.1,M,52.0,M,,0000*4A
$GPGSA,A,3,09,30,05,29,16,,,,,,,,2.0,1.2,1.6*37
$GPRMC,090845.000,A,4825.2054,N,00428.3474,W,0.25,324.29,050218,,,A*79
$GPGGA,090846.000,4825.2054,N,00428.3473,W,1,05,1.2,134.1,M,52.0,M,,0000*4E
$GPGSA,A,3,09,30,05,29,16,,,,,,,,2.0,1.2,1.6*37
$GPRMC,090846.000,A,4825.2054,N,00428.3473,W,0.39,324.29,050218,,,A*70
$GPGGA,090847.000,4825.2053,N,00428.3472,W,1,05,1.2,134.1,M,52.0,M,,0000*49
$GPGSA,A,3,09,30,05,29,16,,,,,,,,2.0,1.2,1.6*37
$GPRMC,090847.000,A,4825.2053,N,00428.3472,W,0.28,324.29,050218,,,A*77
$GPGGA,090848.000,4825.2054,N,00428.3472,W,1,05,1.2,134.2,M,52.0,M,,0000*42
$GPGSA,A,3,09,30,05,29,16,,,,,,,,2.0,1.2,1.6*37
$GPGSV,3,1,12,09,64,060,18,30,30,170,12,05,25,294,31,29,08,330,37*71
$GPGSV,3,2,12,16,08,049,19,02,51,277,08,26,03,022,12,04,71,148,*76
$GPGSV,3,3,12,06,53,206,,07,49,144,,23,28,063,,57,10,127,*7C
$GPRMC,090848.000,A,4825.2054,N,00428.3472,W,0.31,324.29,050218,,,A*77
$GPGGA,090849.000,4825.2054,N,00428.3472,W,1,05,1.2,134.3,M,52.0,M,,0000*42
$GPGSA,A,3,09,30,05,29,16,,,,,,,,2.0,1.2,1.6*37
$GPRMC,090849.000,A,4825.2054,N,00428.3472,W,0.37,324.29,050218,,,A*70
$GPGGA,090850.000,4825.2054,N,00428.3472,W,1,05,1.2,134.3,M,52.0,M,,0000*4A
$GPGSA,A,3,09,30,05,29,16,,,,,,,,2.0,1.2,1.6*37
$GPRMC,090850.000,A,4825.2054,N,00428.3472,W,0.45,324.29,050218,,,A*7D
$GPGGA,090851.000,4825.2055,N,00428.3474,W,1,05,1.2,134.4,M,52.0,M,,0000*4B
$GPGSA,A,3,09,30,05,29,16,,,,,,,,2.0,1.2,1.6*37
$GPRMC,090851.000,A,4825.2055,N,00428.3474,W,0.52,324.29,050218,,,A*7D
$GPGGA,090852.000,4825.2055,N,00428.3475,W,1,05,1.2,134.4,M,52.0,M,,0000*49
$GPGSA,A,3,09,30,05,29,16,,,,,,,,2.0,1.2,1.6*37
$GPRMC,090852.000,A,4825.2055,N,00428.3475,W,0.44,324.29,050218,,,A*78
$GPGGA,090853.000,4825.2056,N,00428.3476,W,1,05,1.2,134.4,M,52.0,M,,0000*48
$GPGSA,A,3,09,30,05,29,16,,,,,,,,2.0,1.2,1.6*37
$GPGSV,3,1,12,09,64,060,18,30,30,170,11,05,25,294,31,29,08,330,37*72
$GPGSV,3,2,12,16,08,049,19,02,51,277,08,07,49,144,13,23,28,063,13*78
$GPGSV,3,3,12,26,03,022,11,04,71,148,,06,53,206,,57,10,127,*71
$GPRMC,090853.000,A,4825.2056,N,00428.3476,W,0.44,324.29,050218,,,A*79
$GPGGA,090854.000,4825.2056,N,00428.3476,W,1,07,1.0,134.5,M,52.0,M,,0000*4E
$GPGSA,A,3,09,02,30,23,05,29,16,,,,,,1.9,1.0,1.6*3C
$GPRMC,090854.000,A,4825.2056,N,00428.3476,W,0.35,324.29,050218,,,A*78
$GPGGA,090855.000,4825.2057,N,00428.3477,W,1,07,1.0,134.5,M,52.0,M,,0000*4F
$GPGSA,A,3,09,02,30,23,05,29,16,,,,,,1.9,1.0,1.6*3C
$GPRMC,090855.000,A,4825.2057,N,00428.3477,W,0.50,324.29,050218,,,A*7A
$GPGGA,090856.000,4825.2057,N,00428.3478,W,1,06,1.1,134.5,M,52.0,M,,0000*43
$GPGSA,A,3,09,30,23,05,29,16,,,,,,,2.1,1.1,1.8*3A
$GPRMC,090856.000,A,4825.2057,N,00428.3478,W,0.48,324.29,050218,,,A*7F
$GPGGA,090857.000,4825.2057,N,00428.3477,W,1,06,1.1,134.5,M,52.0,M,,0000*4D
$GPGSA,A,3,09,30,23,05,29,16,,,,,,,2.1,1.1,1.8*3A
$GPRMC,090857.000,A,4825.2057,N,00428.3477,W,0.44,324.29,050218,,,A*7D
$GPGGA,090858.000,4825.2057,N,00428.3477,W,1,06,1.6,134.6,M,52.0,M,,0000*46
$GPGSA,A,3,09,07,23,05,29,16,,,,,,,2.8,1.6,2.3*38
$GPGSV,3,1,12,09,64,060,18,07,49,144,11,23,28,063,14,05,25,294,31*73
$GPGSV,3,2,12,29,08,330,37,16,08,049,18,02,51,277,08,26,03,022,12*7F
$GPGSV,3,3,12,30,30,170,08,04,71,148,,06,53,206,,57,10,127,*78
$GPRMC,090858.000,A,4825.2057,N,00428.3477,W,0.28,324.29,050218,,,A*78
$GPGGA,090859.000,4825.2056,N,00428.3475,W,1,06,1.6,134.6,M,52.0,M,,0000*44
$GPGSA,A,3,09,07,23,05,29,16,,,,,,,2.8,1.6,2.3*38
$GPRMC,090859.000,A,4825.2056,N,00428.3475,W,0.32,324.29,050218,,,A*71
$GPGGA,090900.000,4825.2054,N,00428.3471,W,1,07,1.6,134.7,M,52.0,M,,0000*4F
$GPGSA,A,3,09,02,07,23,05,29,16,,,,,,2.7,1.6,2.1*37
$GPRMC,090900.000,A,4825.2054,N,00428.3471,W,0.81,324.29,050218,,,A*72
$GPGGA,090901.000,4825.2052,N,00428.3468,W,1,07,1.6,134.7,M,52.0,M,,0000*40
$GPGSA,A,3,09,02,07,23,05,29,16,,,,,,2.7,1.6,2.1*37
$GPRMC,090901.000,A,4825.2052,N,00428.3468,W,0.71,324.29,050218,,,A*72
$GPGGA,090902.000,4825.2051,N,00428.3465,W,1,07,1.6,134.7,M,52.0,M,,0000*4D
$GPGSA,A,3,09,02,07,23,05,29,16,,,,,,2.7,1.6,2.1*37
$GPRMC,090902.000,A,4825.2051,N,00428.3465,W,0.73,324.29,050218,,,A*7D
$GPGGA,090903.000,4825.2048,N,00428.3461,W,1,07,1.6,134.7,M,52.0,M,,0000*40
$GPGSA,A,3,09,02,07,23,05,29,16,,,,,,2.7,1.6,2.1*37
$GPGSV,3,1,12,09,64,060,17,02,51,277,10,07,49,144,10,23,28,063,12*71
$GPGSV,3,2,12,05,25,294,31,29,08,330,37,16,08,049,18,26,03,022,12*7C
$GPGSV,3,3,12,30,30,170,08,04,71,148,,06,53,206,,57,10,127,*78
$GPRMC,090903.000,A,4825.2048,N,00428.3461,W,0.70,324.29,050218,,,A*73
$GPGGA,090904.000,4825.2046,N,00428.3458,W,1,07,1.1,134.7,M,52.0,M,,0000*44
$GPGSA,A,3,02,07,30,23,05,29,16,,,,,,2.6,1.1,2.3*39
$GPRMC,090904.000,A,4825.2046,N,00428.3458,W,0.49,324.29,050218,,,A*7A
$GPGGA,090905.000,4825.2044,N,00428.3454,W,1,06,2.3,134.7,M,52.0,M,,0000*4B
$GPGSA,A,3,02,07,23,05,29,16,,,,,,,4.6,2.3,3.9*36
$GPRMC,090905.000,A,4825.2044,N,00428.3454,W,0.71,324.29,050218,,,A*7E
$GPGGA,090906.000,4825.2042,N,00428.3450,W,1,07,1.6,134.7,M,52.0,M,,0000*4D
$GPGSA,A,3,09,02,07,23,05,29,16,,,,,,2.7,1.6,2.1*37
$GPRMC,090906.000,A,4825.2042,N,00428.3450,W,0.69,324.29,050218,,,A*76
$GPGGA,090907.000,4825.2040,N,00428.3448,W,1,06,3.8,134.7,M,52.0,M,,0000*4A
$GPGSA,A,3,09,02,23,05,29,16,,,,,,,5.1,3.8,3.4*39
$GPRMC,090907.000,A,4825.2040,N,00428.3448,W,0.64,324.29,050218,,,A*71
$GPGGA,090908.000,4825.2039,N,00428.3446,W,1,07,1.0,134.7,M,52.0,M,,0000*4E
$GPGSA,A,3,09,02,30,23,05,29,16,,,,,,1.9,1.0,1.6*3C
$GPGSV,3,1,12,09,64,060,16,02,51,277,09,30,30,170,08,23,28,063,11*7F
$GPGSV,3,2,12,05,25,294,31,29,08,330,37,16,08,049,18,07,49,144,11*73
$GPGSV,3,3,12,26,03,022,12,04,71,148,,06,53,206,,57,10,127,*72
$GPRMC,090908.000,A,4825.2039,N,00428.3446,W,0.46,324.29,050218,,,A*7E
$GPGGA,090909.000,4825.2037,N,00428.3444,W,1,07,1.0,134.7,M,52.0,M,,0000*43
$GPGSA,A,3,09,02,30,23,05,29,16,,,,,,1.9,1.0,1.6*3C
$GPRMC,090909.000,A,4825.2037,N,00428.3444,W,0.48,324.29,050218,,,A*7D
$GPGGA,090910.000,4825.2036,N,00428.3443,W,1,07,1.0,134.6,M,52.0,M,,0000*4C
$GPGSA,A,3,09,02,30,23,05,29,16,,,,,,1.9,1.0,1.6*3C
$GPRMC,090910.000,A,4825.2036,N,00428.3443,W,0.46,324.29,050218,,,A*7D
$GPGGA,090911.000,4825.2035,N,00428.3440,W,1,06,1.1,134.7,M,52.0,M,,0000*4C
$GPGSA,A,3,09,30,23,05,29,16,,,,,,,2.1,1.1,1.8*3A
$GPRMC,090911.000,A,4825.2035,N,00428.3440,W,0.72,324.29,050218,,,A*7B
$GPGGA,090912.000,4825.2033,N,00428.3437,W,1,05,3.3,134.7,M,52.0,M,,0000*4A
$GPGSA,A,3,09,23,05,29,16,,,,,,,,4.0,3.3,2.3*36
$GPRMC,090912.000,A,4825.2033,N,00428.3437,W,0.87,324.29,050218,,,A*74
$GPGGA,090913.000,4825.2032,N,00428.3435,W,1,05,3.3,134.6,M,52.0,M,,0000*49
$GPGSA,A,3,09,23,05,29,16,,,,,,,,4.0,3.3,2.3*36
$GPGSV,3,1,12,09,64,060,16,23,28,063,10,05,25,294,30,29,08,330,37*74
$GPGSV,3,2,12,16,08,049,19,02,51,277,07,07,49,144,09,26,03,022,10*76
$GPGSV,3,3,12,30,30,170,07,04,71,148,,06,53,206,,57,10,127,*77
$GPRMC,090913.000,A,4825.2032,N,00428.3435,W,0.74,324.29,050218,,,A*7A
$GPGGA,090914.000,4825.2031,N,00428.3433,W,1,06,1.1,134.6,M,52.0,M,,0000*48
$GPGSA,A,3,09,30,23,05,29,16,,,,,,,2.1,1.1,1.8*3A
$GPRMC,090914.000,A,4825.2031,N,00428.3433,W,0.41,324.29,050218,,,A*7E
$GPGGA,090915.000,4825.2030,N,00428.3433,W,1,05,3.3,134.5,M,52.0,M,,0000*48
$GPGSA,A,3,09,23,05,29,16,,,,,,,,4.0,3.3,2.3*36
$GPRMC,090915.000,A,4825.2030,N,00428.3433,W,0.32,324.29,050218,,,A*7A
$GPGGA,090916.000,4825.2029,N,00428.3430,W,1,05,3.3,134.5,M,52.0,M,,0000*40
$GPGSA,A,3,09,23,05,29,16,,,,,,,,4.0,3.3,2.3*36
$GPRMC,090916.000,A,4825.2029,N,00428.3430,W,0.66,324.29,050218,,,A*73
$GPGGA,090917.000,4825.2027,N,00428.3428,W,1,06,3.8,134.4,M,52.0,M,,0000*4F
$GPGSA,A,3,09,02,23,05,29,16,,,,,,,5.1,3.8,3.4*39
$GPRMC,090917.000,A,4825.2027,N,00428.3428,W,0.61,324.29,050218,,,A*72
$GPGGA,090918.000,4825.2026,N,00428.3426,W,1,06,3.8,134.5,M,52.0,M,,0000*4E
$GPGSA,A,3,09,02,23,05,29,16,,,,,,,5.1,3.8,3.4*39
$GPGSV,3,1,12,09,64,060,16,02,51,277,11,23,28,063,09,05,25,294,30*7F
$GPGSV,3,2,12,29,08,330,37,16,08,049,19,07,49,144,07,26,03,022,07*7A
$GPGSV,3,3,12,30,30,170,05,04,71,148,,06,53,206,,57,10,127,*75
$GPRMC,090918.000,A,4825.2026,N,00428.3426,W,0.59,324.29,050218,,,A*79
$GPGGA,090919.000,4825.2025,N,00428.3425,W,1,06,3.8,134.5,M,52.0,M,,0000*4F
$GPGSA,A,3,09,02,23,05,29,16,,,,,,,5.1,3.8,3.4*39
$GPRMC,090919.000,A,4825.2025,N,00428.3425,W,0.46,324.29,050218,,,A*76
$GPGGA,090920.000,4825.2024,N,00428.3423,W,1,06,3.8,134.5,M,52.0,M,,0000*42
$GPGSA,A,3,09,02,23,05,29,16,,,,,,,5.1,3.8,3.4*39
$GPRMC,090920.000,A,4825.2024,N,00428.3423,W,0.54,324.29,050218,,,A*78
$GPGGA,090921.000,4825.2024,N,00428.3422,W,1,06,3.8,134.5,M,52.0,M,,0000*42
$GPGSA,A,3,09,02,23,05,29,16,,,,,,,5.1,3.8,3.4*39
$GPRMC,090921.000,A,4825.2024,N,00428.3422,W,0.46,324.29,050218,,,A*7B
$GPGGA,090922.000,4825.2023,N,00428.3421,W,1,06,3.8,134.5,M,52.0,M,,0000*45
$GPGSA,A,3,09,02,23,05,29,16,,,,,,,5.1,3.8,3.4*39
$GPRMC,090922.000,A,4825.2023,N,00428.3421,W,0.42,324.29,050218,,,A*78
$GPGGA,090923.000,4825.2022,N,00428.3421,W,1,06,3.8,134.5,M,52.0,M,,0000*45
$GPGSA,A,3,09,02,23,05,29,16,,,,,,,5.1,3.8,3.4*39
$GPGSV,3,1,12,09,64,060,16,02,51,277,12,23,28,063,10,05,25,294,30*74
$GPGSV,3,2,12,29,08,330,37,16,08,049,18,07,49,144,06,26,03,022,04*79
$GPGSV,3,3,12,30,30,170,04,04,71,148,,06,53,206,,57,10,127,*74
$GPRMC,090923.000,A,4825.2022,N,00428.3421,W,0.28,324.29,050218,,,A*74
$GPGGA,090924.000,4825.2022,N,00428.3421,W,1,06,3.8,134.5,M,52.0,M,,0000*42
$GPGSA,A,3,09,02,23,05,29,16,,,,,,,5.1,3.8,3.4*39
$GPRMC,090924.000,A,4825.2022,N,00428.3421,W,0.25,324.29,050218,,,A*7E
$GPGGA,090925.000,4825.2022,N,00428.3422,W,1,06,3.8,134.5,M,52.0,M,,0000*40
$GPGSA,A,3,09,02,23,05,29,16,,,,,,,5.1,3.8,3.4*39
$GPRMC,090925.000,A,4825.2022,N,00428.3422,W,0.21,324.29,050218,,,A*78
$GPGGA,090926.000,4825.2022,N,00428.3421,W,1,06,3.8,134.4,M,52.0,M,,0000*41
$GPGSA,A,3,09,02,23,05,29,16,,,,,,,5.1,3.8,3.4*39
$GPRMC,090926.000,A,4825.2022,N,00428.3421,W,0.38,324.29,050218,,,A*70
$GPGGA,090927.000,4825.2021,N,00428.3421,W,1,06,3.8,134.3,M,52.0,M,,0000*44
$GPGSA,A,3,09,02,23,05,29,16,,,,,,,5.1,3.8,3.4*39
$GPRMC,090927.000,A,4825.2021,N,00428.3421,W,0.35,324.29,050218,,,A*7F
$GPGGA,090928.000,4825.2021,N,00428.3420,W,1,06,3.8,134.4,M,52.0,M,,0000*4D
$GPGSA,A,3,09,02,23,05,29,16,,,,,,,5.1,3.8,3.4*39
$GPGSV,3,1,12,09,64,060,16,02,51,277,14,23,28,063,10,05,25,294,29*7A
$GPGSV,3,2,12,29,08,330,37,16,08,049,18,07,49,144,06,26,03,022,07*7A
$GPGSV,3,3,12,30,30,170,04,04,71,148,,06,53,206,,57,10,127,*74
$GPRMC,090928.000,A,4825.2021,N,00428.3420,W,0.34,324.29,050218,,,A*70
$GPGGA,090929.000,4825.2021,N,00428.3421,W,1,06,3.8,134.4,M,52.0,M,,0000*4D
$GPGSA,A,3,09,02,23,05,29,16,,,,,,,5.1,3.8,3.4*39
$GPRMC,090929.000,A,4825.2021,N,00428.3421,W,0.26,324.29,050218,,,A*73
$GPGGA,090930.000,4825.2022,N,00428.3423,W,1,06,3.8,134.3,M,52.0,M,,0000*43
$GPGSA,A,3,09,02,23,05,29,16,,,,,,,5.1,3.8,3.4*39
$GPRMC,090930.000,A,4825.2022,N,00428.3423,W,0.41,324.29,050218,,,A*7B
$GPGGA,090931.000,4825.2021,N,00428.3422,W,1,06,3.8,134.3,M,52.0,M,,0000*40
$GPGSA,A,3,09,02,23,05,29,16,,,,,,,5.1,3.8,3.4*39
$GPRMC,090931.000,A,4825.2021,N,00428.3422,W,0.22,324.29,050218,,,A*7D
$GPGGA,090932.000,4825.2021,N,00428.3422,W,1,06,3.8,134.2,M,52.0,M,,0000*42
$GPGSA,A,3,09,02,23,05,29,16,,,,,,,5.1,3.8,3.4*39
$GPRMC,090932.000,A,4825.2021,N,00428.3422,W,0.39,324.29,050218,,,A*74
$GPGGA,090933.000,4825.2020,N,00428.3420,W,1,06,3.8,134.2,M,52.0,M,,0000*40
$GPGSA,A,3,09,02,23,05,29,16,,,,,,,5.1,3.8,3.4*39
$GPGSV,3,1,12,09,64,060,16,02,51,277,15,23,28,063,10,05,25,294,28*7A
$GPGSV,3,2,12,29,08,330,37,16,08,049,17,07,49,144,06,26,03,022,10*73
$GPGSV,3,3,12,30,30,170,04,04,71,148,,06,53,206,,57,10,127,*74
$GPRMC,090933.000,A,4825.2020,N,00428.3420,W,0.36,324.29,050218,,,A*79
$GPGGA,090934.000,4825.2020,N,00428.3419,W,1,06,3.8,134.2,M,52.0,M,,0000*4D
$GPGSA,A,3,09,02,23,05,29,16,,,,,,,5.2,3.8,3.4*3A
$GPRMC,090934.000,A,4825.2020,N,00428.3419,W,0.39,324.29,050218,,,A*7B
$GPGGA,090935.000,4825.2018,N,00428.3414,W,1,06,3.8,134.2,M,52.0,M,,0000*4A
$GPGSA,A,3,09,02,23,05,29,16,,,,,,,5.2,3.8,3.4*3A
$GPRMC,090935.000,A,4825.2018,N,00428.3414,W,0.88,324.29,050218,,,A*76
$GPGGA,090936.000,4825.2017,N,00428.3409,W,1,06,3.8,134.2,M,52.0,M,,0000*4A
$GPGSA,A,3,09,02,23,05,29,16,,,,,,,5.2,3.8,3.4*3A
$GPRMC,090936.000,A,4825.2017,N,00428.3409,W,1.15,324.29,050218,,,A*73
$GPGGA,090937.000,4825.2016,N,00428.3405,W,1,06,3.8,134.2,M,52.0,M,,0000*46
$GPGSA,A,3,09,02,23,05,29,16,,,,,,,5.2,3.8,3.4*3A
$GPRMC,090937.000,A,4825.2016,N,00428.3405,W,1.12,324.29,050218,,,A*78
$GPGGA,090938.000,4825.2014,N,00428.3400,W,1,05,4.0,134.2,M,52.0,M,,0000*42
$GPGSA,A,3,09,02,05,29,16,,,,,,,,5.3,4.0,3.5*34
$GPGSV,3,1,12,09,64,060,15,02,51,277,08,05,25,294,28,29,08,330,37*7D
$GPGSV,3,2,12,16,08,049,17,07,49,144,04,23,28,063,08,26,03,022,10*70
$GPGSV,3,3,12,04,71,148,,06,53,206,,30,30,170,,57,10,127,*70
$GPRMC,090938.000,A,4825.2014,N,00428.3400,W,1.44,77.11,050218,,,A*4D
$GPGGA,090939.000,4825.2012,N,00428.3396,W,1,06,1.6,134.2,M,52.0,M,,0000*4D
$GPGSA,A,3,09,07,23,05,29,16,,,,,,,2.8,1.6,2.3*38
$GPRMC,090939.000,A,4825.2012,N,00428.3396,W,1.59,93.94,050218,,,A*49
$GPGGA,090940.000,4825.2011,N,00428.3392,W,1,05,1.6,134.3,M,52.0,M,,0000*46
$GPGSA,A,3,09,07,05,29,16,,,,,,,,2.4,1.6,1.9*3C
$GPRMC,090940.000,A,4825.2011,N,00428.3392,W,1.42,98.77,050218,,,A*4C
$GPGGA,090941.000,4825.2013,N,00428.3392,W,1,07,1.6,134.3,M,52.0,M,,0000*47
$GPGSA,A,3,09,02,07,23,05,29,16,,,,,,2.7,1.6,2.2*34
$GPRMC,090941.000,A,4825.2013,N,00428.3392,W,0.92,98.77,050218,,,A*43
$GPGGA,090942.000,4825.2014,N,00428.3392,W,1,07,1.6,134.4,M,52.0,M,,0000*44
$GPGSA,A,3,09,02,07,23,05,29,16,,,,,,2.7,1.6,2.2*34
$GPRMC,090942.000,A,4825.2014,N,00428.3392,W,0.84,98.77,050218,,,A*40
$GPGGA,090943.000,4825.2016,N,00428.3395,W,1,05,1.6,134.4,M,52.0,M,,0000*42
$GPGSA,A,3,09,07,05,29,16,,,,,,,,2.4,1.6,1.9*3C
$GPGSV,3,1,12,09,64,060,14,07,49,144,18,05,25,294,27,29,08,330,37*7D
$GPGSV,3,2,12,16,08,049,17,02,51,277,08,23,28,063,07,26,03,022,10*7C
$GPGSV,3,3,12,04,71,148,,06,53,206,,30,30,170,,57,10,127,*70
$GPRMC,090943.000,A,4825.2016,N,00428.3395,W,0.21,98.77,050218,,,A*4B
$GPGGA,090944.000,4825.2017,N,00428.3397,W,1,05,1.6,134.5,M,52.0,M,,0000*47
$GPGSA,A,3,09,07,05,29,16,,,,,,,,2.4,1.6,1.9*3C
$GPRMC,090944.000,A,4825.2017,N,00428.3397,W,0.13,98.77,050218,,,A*4E
$GPGGA,090945.000,4825.2017,N,00428.3399,W,1,05,1.6,134.5,M,52.0,M,,0000*48
$GPGSA,A,3,09,07,05,29,16,,,,,,,,2.4,1.6,1.9*3C
$GPRMC,090945.000,A,4825.2017,N,00428.3399,W,0.18,98.77,050218,,,A*4A
$GPGGA,090946.000,4825.2017,N,00428.3399,W,1,06,1.6,134.5,M,52.0,M,,0000*48
$GPGSA,A,3,09,07,23,05,29,16,,,,,,,2.8,1.6,2.3*38
$GPRMC,090946.000,A,4825.2017,N,00428.3399,W,0.49,98.77,050218,,,A*4D
$GPGGA,090947.000,4825.2018,N,00428.3400,W,1,06,1.6,134.5,M,52.0,M,,0000*41
$GPGSA,A,3,09,07,23,05,29,16,,,,,,,2.8,1.6,2.3*38
$GPRMC,090947.000,A,4825.2018,N,00428.3400,W,0.33,98.77,050218,,,A*49
$GPGGA,090948.000,4825.2021,N,00428.3400,W,1,06,1.6,134.6,M,52.0,M,,0000*47
$GPGSA,A,3,09,07,23,05,29,16,,,,,,,2.8,1.6,2.3*38
$GPGSV,3,1,12,09,64,060,15,07,49,144,18,23,28,063,17,05,25,294,22*76
$GPGSV,3,2,12,29,08,330,37,16,08,049,16,02,51,277,08,26,03,022,13*70
$GPGSV,3,3,12,04,71,148,,06,53,206,,30,30,170,,57,10,127,*70
$GPRMC,090948.000,A,4825.2021,N,00428.3400,W,0.56,98.77,050218,,,A*4F
$GPGGA,090949.000,4825.2023,N,00428.3403,W,1,06,1.6,134.6,M,52.0,M,,0000*47
$GPGSA,A,3,09,07,23,05,29,16,,,,,,,2.8,1.6,2.3*38
$GPRMC,090949.000,A,4825.2023,N,00428.3403,W,0.53,98.77,050218,,,A*4A
$GPGGA,090950.000,4825.2026,N,00428.3407,W,1,07,1.6,134.5,M,52.0,M,,0000*4C
$GPGSA,A,3,09,02,07,23,05,29,16,,,,,,2.7,1.6,2.2*34
$GPRMC,090950.000,A,4825.2026,N,00428.3407,W,0.49,98.77,050218,,,A*48
$GPGGA,090951.000,4825.2029,N,00428.3410,W,1,07,1.6,134.5,M,52.0,M,,0000*44
$GPGSA,A,3,09,02,07,23,05,29,16,,,,,,2.7,1.6,2.2*34
$GPRMC,090951.000,A,4825.2029,N,00428.3410,W,0.38,98.77,050218,,,A*46
$GPGGA,090952.000,4825.2031,N,00428.3411,W,1,07,1.6,134.5,M,52.0,M,,0000*4F
$GPGSA,A,3,09,02,07,23,05,29,16,,,,,,2.7,1.6,2.2*34
$GPRMC,090952.000,A,4825.2031,N,00428.3411,W,0.53,98.77,050218,,,A*40
$GPGGA,090953.000,4825.2033,N,00428.3415,W,1,07,1.6,134.5,M,52.0,M,,0000*48
$GPGSA,A,3,09,02,07,23,05,29,16,,,,,,2.7,1.6,2.2*34
$GPGSV,3,1,12,09,64,060,14,02,51,277,09,07,49,144,18,23,28,063,17*77
$GPGSV,3,2,12,05,25,294,22,29,08,330,38,16,08,049,16,06,53,206,10*7E
$GPGSV,3,3,12,26,03,022,14,04,71,148,,30,30,170,,57,10,127,*76
$GPRMC,090953.000,A,4825.2033,N,00428.3415,W,0.36,98.77,050218,,,A*44
$GPGGA,090954.000,4825.2033,N,00428.3420,W,1,06,2.4,134.5,M,52.0,M,,0000*49
$GPGSA,A,3,02,07,23,05,29,16,,,,,,,4.7,2.4,4.1*3F
$GPRMC,090954.000,A,4825.2033,N,00428.3420,W,0.36,98.77,050218,,,A*45
$GPGGA,090955.000,4825.2035,N,00428.3422,W,1,07,2.1,134.5,M,52.0,M,,0000*48
$GPGSA,A,3,06,02,07,23,05,29,16,,,,,,4.4,2.1,3.8*31
$GPRMC,090955.000,A,4825.2035,N,00428.3422,W,0.29,98.77,050218,,,A*4E
$GPGGA,090956.000,4825.2038,N,00428.3423,W,1,06,2.4,134.5,M,52.0,M,,0000*43
$GPGSA,A,3,02,07,23,05,29,16,,,,,,,4.7,2.4,4.1*3F
$GPRMC,090956.000,A,4825.2038,N,00428.3423,W,0.76,98.77,050218,,,A*4B
$GPGGA,090957.000,4825.2041,N,00428.3426,W,1,07,2.1,134.6,M,52.0,M,,0000*4E
$GPGSA,A,3,06,02,07,23,05,29,16,,,,,,4.4,2.1,3.8*31
$GPRMC,090957.000,A,4825.2041,N,00428.3426,W,0.85,98.77,050218,,,A*4D
$GPGGA,090958.000,4825.2043,N,00428.3431,W,1,06,2.4,134.6,M,52.0,M,,0000*41
$GPGSA,A,3,02,07,23,05,29,16,,,,,,,4.7,2.4,4.1*3F
$GPGSV,3,1,12,02,51,277,10,07,49,144,17,23,28,063,18,05,25,294,21*79
$GPGSV,3,2,12,29,08,330,38,16,08,049,16,06,53,206,09,09,64,060,07*71
$GPGSV,3,3,12,26,03,022,12,04,71,148,,30,30,170,,57,10,127,*70
$GPRMC,090958.000,A,4825.2043,N,00428.3431,W,1.10,98.77,050218,,,A*4B
$GPGGA,090959.000,4825.2047,N,00428.3437,W,1,06,2.4,134.6,M,52.0,M,,0000*42
$GPGSA,A,3,02,07,23,05,29,16,,,,,,,4.8,2.4,4.1*30
$GPRMC,090959.000,A,4825.2047,N,00428.3437,W,1.46,24.56,050218,,,A*4F
$GPGGA,091000.000,4825.2050,N,00428.3441,W,1,07,2.1,134.6,M,52.0,M,,0000*45
$GPGSA,A,3,06,02,07,23,05,29,16,,,,,,4.4,2.1,3.8*31
$GPRMC,091000.000,A,4825.2050,N,00428.3441,W,1.10,24.56,050218,,,A*4F
$GPGGA,091001.000,4825.2053,N,00428.3443,W,1,08,1.4,134.6,M,52.0,M,,0000*4C
$GPGSA,A,3,09,06,02,07,23,05,29,16,,,,,2.5,1.4,2.1*31
$GPRMC,091001.000,A,4825.2053,N,00428.3443,W,1.07,24.56,050218,,,A*49
$GPGGA,091002.000,4825.2056,N,00428.3445,W,1,08,1.4,134.6,M,52.0,M,,0000*4C
$GPGSA,A,3,09,06,02,07,23,05,29,16,,,,,2.5,1.4,2.1*31
$GPRMC,091002.000,A,4825.2056,N,00428.3445,W,0.96,24.56,050218,,,A*40
$GPGGA,091003.000,4825.2060,N,00428.3444,W,1,08,1.4,134.5,M,52.0,M,,0000*4A
$GPGSA,A,3,09,06,02,07,23,05,29,16,,,,,2.5,1.4,2.1*31
$GPGSV,3,1,12,09,64,060,13,06,53,206,08,02,51,277,11,07,49,144,18*7D
$GPGSV,3,2,12,23,28,063,19,05,25,294,18,29,08,330,38,16,08,049,16*74
$GPGSV,3,3,12,26,03,022,12,30,30,170,11,04,71,148,,57,10,127,*70
$GPRMC,091003.000,A,4825.2060,N,00428.3444,W,1.12,24.56,050218,,,A*48
$GPGGA,091004.000,4825.2063,N,00428.3443,W,1,09,1.0,134.5,M,52.0,M,,0000*4C
$GPGSA,A,3,09,06,02,07,30,23,05,29,16,,,,1.9,1.0,1.6*3D
$GPRMC,091004.000,A,4825.2063,N,00428.3443,W,1.18,25.56,050218,,,A*40
$GPGGA,091005.000,4825.2065,N,00428.3444,W,1,09,1.0,134.5,M,52.0,M,,0000*4C
$GPGSA,A,3,09,06,02,07,30,23,05,29,16,,,,1.9,1.0,1.6*3D
$GPRMC,091005.000,A,4825.2065,N,00428.3444,W,0.76,25.56,050218,,,A*49
$GPGGA,091006.000,4825.2068,N,00428.3443,W,1,08,1.0,134.6,M,52.0,M,,0000*47
$GPGSA,A,3,09,02,07,30,23,05,29,16,,,,,1.9,1.0,1.6*3B
$GPRMC,091006.000,A,4825.2068,N,00428.3443,W,0.98,25.56,050218,,,A*40
$GPGGA,091007.000,4825.2071,N,00428.3442,W,1,08,1.0,134.6,M,52.0,M,,0000*4F
$GPGSA,A,3,09,02,07,30,23,05,29,16,,,,,1.9,1.0,1.6*3B
$GPRMC,091007.000,A,4825.2071,N,00428.3442,W,1.10,25.56,050218,,,A*49
$GPGGA,091008.000,4825.2075,N,00428.3442,W,1,08,1.0,134.6,M,52.0,M,,0000*44
$GPGSA,A,3,09,02,07,30,23,05,29,16,,,,,1.9,1.0,1.6*3B
$GPGSV,3,1,12,09,64,060,13,02,51,277,10,07,49,144,17,30,30,170,13*7B
$GPGSV,3,2,12,23,28,063,20,05,25,294,17,29,08,330,38,16,08,049,16*71
$GPGSV,3,3,12,26,03,022,11,04,71,148,,06,53,206,,57,10,127,*71
$GPRMC,091008.000,A,4825.2075,N,00428.3442,W,1.04,25.56,050218,,,A*47
$GPGGA,091009.000,4825.2077,N,00428.3444,W,1,08,1.0,134.6,M,52.0,M,,0000*41
$GPGSA,A,3,09,02,07,30,23,05,29,16,,,,,1.9,1.0,1.6*3B
$GPRMC,091009.000,A,4825.2077,N,00428.3444,W,0.88,25.56,050218,,,A*47
$GPGGA,091010.000,4825.2077,N,00428.3446,W,1,08,1.0,134.6,M,52.0,M,,0000*4B
$GPGSA,A,3,09,02,07,30,23,05,29,16,,,,,1.9,1.0,1.6*3B
$GPRMC,091010.000,A,4825.2077,N,00428.3446,W,0.41,25.56,050218,,,A*48
$GPGGA,091011.000,4825.2077,N,00428.3446,W,1,07,1.2,134.6,M,52.0,M,,0000*47
$GPGSA,A,3,02,07,30,23,05,29,16,,,,,,2.6,1.2,2.3*3A
$GPRMC,091011.000,A,4825.2077,N,00428.3446,W,0.23,25.56,050218,,,A*4D
$GPGGA,091012.000,4825.2077,N,00428.3446,W,1,06,1.3,134.6,M,52.0,M,,0000*44
$GPGSA,A,3,07,30,23,05,29,16,,,,,,,3.5,1.3,3.2*3B
$GPRMC,091012.000,A,4825.2077,N,00428.3446,W,0.34,25.56,050218,,,A*48
$GPGGA,091013.000,4825.2077,N,00428.3449,W,1,06,1.3,134.6,M,52.0,M,,0000*4A
$GPGSA,A,3,07,30,23,05,29,16,,,,,,,3.5,1.3,3.2*3B
$GPGSV,3,1,12,07,49,144,16,30,30,170,10,23,28,063,20,05,25,294,17*74
$GPGSV,3,2,12,29,08,330,38,16,08,049,16,02,51,277,06,09,64,060,06*7F
$GPGSV,3,3,12,26,03,022,10,04,71,148,,06,53,206,,57,10,127,*70
$GPRMC,091013.000,A,4825.2077,N,00428.3449,W,0.42,25.56,050218,,,A*47
$GPGGA,091014.000,4825.2076,N,00428.3451,W,1,06,1.3,134.6,M,52.0,M,,0000*45
$GPGSA,A,3,07,30,23,05,29,16,,,,,,,3.5,1.3,3.2*3B
$GPRMC,091014.000,A,4825.2076,N,00428.3451,W,0.40,25.56,050218,,,A*4A
$GPGGA,091015.000,4825.2076,N,00428.3451,W,1,06,1.3,134.6,M,52.0,M,,0000*44
$GPGSA,A,3,07,30,23,05,29,16,,,,,,,3.5,1.3,3.2*3B
$GPRMC,091015.000,A,4825.2076,N,00428.3451,W,0.09,25.56,050218,,,A*46
$GPGGA,091016.000,4825.2076,N,00428.3447,W,1,06,1.3,134.5,M,52.0,M,,0000*43
$GPGSA,A,3,07,30,23,05,29,16,,,,,,,3.5,1.3,3.2*3B
$GPRMC,091016.000,A,4825.2076,N,00428.3447,W,0.66,25.56,050218,,,A*4B
$GPGGA,091017.000,4825.2074,N,00428.3445,W,1,06,1.3,134.5,M,52.0,M,,0000*42
$GPGSA,A,3,07,30,23,05,29,16,,,,,,,3.5,1.3,3.2*3B
$GPRMC,091017.000,A,4825.2074,N,00428.3445,W,0.64,25.56,050218,,,A*48
$GPGGA,091018.000,4825.2071,N,00428.3444,W,1,06,1.3,134.5,M,52.0,M,,0000*49
$GPGSA,A,3,07,30,23,05,29,16,,,,,,,3.5,1.3,3.2*3B
$GPGSV,3,1,12,07,49,144,16,30,30,170,10,23,28,063,20,05,25,294,19*7A
$GPGSV,3,2,12,29,08,330,36,16,08,049,16,02,51,277,05,09,64,060,05*71
$GPGSV,3,3,12,26,03,022,11,04,71,148,,06,53,206,,57,10,127,*71
$GPRMC,091018.000,A,4825.2071,N,00428.3444,W,0.97,25.56,050218,,,A*4F
$GPGGA,091019.000,4825.2069,N,00428.3441,W,1,06,1.3,134.5,M,52.0,M,,0000*44
$GPGSA,A,3,07,30,23,05,29,16,,,,,,,3.5,1.3,3.2*3B
$GPRMC,091019.000,A,4825.2069,N,00428.3441,W,1.10,25.56,050218,,,A*4C
$GPGGA,091020.000,4825.2066,N,00428.3437,W,1,06,1.3,134.5,M,52.0,M,,0000*40
$GPGSA,A,3,07,30,23,05,29,16,,,,,,,3.5,1.3,3.2*3B
$GPRMC,091020.000,A,4825.2066,N,00428.3437,W,1.18,76.50,050218,,,A*40
$GPGGA,091021.000,4825.2063,N,00428.3436,W,1,06,1.3,134.5,M,52.0,M,,0000*45
$GPGSA,A,3,07,30,23,05,29,16,,,,,,,3.5,1.3,3.2*3B
$GPRMC,091021.000,A,4825.2063,N,00428.3436,W,1.04,76.50,050218,,,A*48
$GPGGA,091022.000,4825.2063,N,00428.3433,W,1,06,1.3,134.5,M,52.0,M,,0000*43
$GPGSA,A,3,07,30,23,05,29,16,,,,,,,3.5,1.3,3.2*3B
$GPRMC,091022.000,A,4825.2063,N,00428.3433,W,0.84,76.50,050218,,,A*47
$GPGGA,091023.000,4825.2066,N,00428.3428,W,1,06,1.3,134.5,M,52.0,M,,0000*4D
$GPGSA,A,3,07,30,23,05,29,16,,,,,,,3.5,1.3,3.2*3B
$GPGSV,3,1,12,07,49,144,15,30,30,170,09,23,28,063,19,05,25,294,21*70
$GPGSV,3,2,12,29,08,330,36,16,08,049,16,02,51,277,05,09,64,060,05*71
$GPGSV,3,3,12,26,03,022,13,04,71,148,,06,53,206,,57,10,127,*73
$GPRMC,091023.000,A,4825.2066,N,00428.3428,W,0.73,76.50,050218,,,A*41
$GPGGA,091024.000,4825.2067,N,00428.3424,W,1,06,1.3,134.4,M,52.0,M,,0000*46
$GPGSA,A,3,07,30,23,05,29,16,,,,,,,3.5,1.3,3.2*3B
$GPRMC,091024.000,A,4825.2067,N,00428.3424,W,0.86,76.50,050218,,,A*41
$GPGGA,091025.000,4825.2067,N,00428.3418,W,1,06,1.3,134.4,M,52.0,M,,0000*48
$GPGSA,A,3,07,30,23,05,29,16,,,,,,,3.5,1.3,3.2*3B
$GPRMC,091025.000,A,4825.2067,N,00428.3418,W,1.06,76.50,050218,,,A*46
$GPGGA,091026.000,4825.2067,N,00428.3415,W,1,06,1.3,134.4,M,52.0,M,,0000*46
$GPGSA,A,3,07,30,23,05,29,16,,,,,,,3.5,1.3,3.2*3B
$GPRMC,091026.000,A,4825.2067,N,00428.3415,W,0.58,76.50,050218,,,A*42
$GPGGA,091027.000,4825.2067,N,00428.3412,W,1,06,1.3,134.3,M,52.0,M,,0000*47
$GPGSA,A,3,07,30,23,05,29,16,,,,,,,3.5,1.3,3.2*3B
$GPRMC,091027.000,A,4825.2067,N,00428.3412,W,0.82,76.50,050218,,,A*43
$GPGGA,091028.000,4825.2067,N,00428.3409,W,1,06,1.3,134.3,M,52.0,M,,0000*42
$GPGSA,A,3,07,30,23,05,29,16,,,,,,,3.5,1.3,3.2*3B
$GPGSV,3,1,12,07,49,144,17,30,30,170,08,23,28,063,19,05,25,294,21*73
$GPGSV,3,2,12,29,08,330,37,16,08,049,16,02,51,277,05,09,64,060,10*74
$GPGSV,3,3,12,26,03,022,12,04,71,148,,06,53,206,,57,10,127,*72
$GPRMC,091028.000,A,4825.2067,N,00428.3409,W,0.69,76.50,050218,,,A*43
$GPGGA,091029.000,4825.2069,N,00428.3406,W,1,05,1.8,134.3,M,52.0,M,,0000*4A
$GPGSA,A,3,07,23,05,29,16,,,,,,,,3.4,1.8,2.9*38
$GPRMC,091029.000,A,4825.2069,N,00428.3406,W,0.50,76.50,050218,,,A*49
$GPGGA,091030.000,4825.2071,N,00428.3401,W,1,05,1.8,134.3,M,52.0,M,,0000*4C
$GPGSA,A,3,07,23,05,29,16,,,,,,,,3.4,1.8,2.9*38
$GPRMC,091030.000,A,4825.2071,N,00428.3401,W,0.87,76.50,050218,,,A*45
$GPGGA,091031.000,4825.2074,N,00428.3397,W,1,05,1.8,134.3,M,52.0,M,,0000*40
$GPGSA,A,3,07,23,05,29,16,,,,,,,,3.4,1.8,2.9*38
$GPRMC,091031.000,A,4825.2074,N,00428.3397,W,1.04,76.50,050218,,,A*43
$GPGGA,091032.000,4825.2078,N,00428.3391,W,1,05,1.8,134.3,M,52.0,M,,0000*49
$GPGSA,A,3,07,23,05,29,16,,,,,,,,3.4,1.8,2.9*38
$GPRMC,091032.000,A,4825.2078,N,00428.3391,W,1.37,63.84,050218,,,A*47
$GPGGA,091033.000,4825.2082,N,00428.3386,W,1,06,2.5,134.3,M,52.0,M,,0000*46
$GPGSA,A,3,02,07,23,05,29,16,,,,,,,4.9,2.5,4.2*33
$GPGSV,3,1,12,02,51,277,09,07,49,144,18,23,28,063,19,05,25,294,21*7F
$GPGSV,3,2,12,29,08,330,37,16,08,049,16,06,53,206,11,09,64,060,04*74
$GPGSV,3,3,12,26,03,022,12,30,30,170,05,04,71,148,,57,10,127,*75
$GPRMC,091033.000,A,4825.2082,N,00428.3386,W,1.26,57.00,050218,,,A*4E
$GPGGA,091034.000,4825.2085,N,00428.3381,W,1,06,2.5,134.3,M,52.0,M,,0000*41
$GPGSA,A,3,02,07,23,05,29,16,,,,,,,4.9,2.5,4.2*33
$GPRMC,091034.000,A,4825.2085,N,00428.3381,W,1.39,59.03,050218,,,A*4A
$GPGGA,091035.000,4825.2088,N,00428.3373,W,1,06,2.5,134.3,M,52.0,M,,0000*40
$GPGSA,A,3,02,07,23,05,29,16,,,,,,,4.9,2.5,4.2*33
$GPRMC,091035.000,A,4825.2088,N,00428.3373,W,1.72,62.86,050218,,,A*41
$GPGGA,091036.000,4825.2090,N,00428.3367,W,1,06,2.5,134.3,M,52.0,M,,0000*4F
$GPGSA,A,3,02,07,23,05,29,16,,,,,,,4.9,2.5,4.2*33
$GPRMC,091036.000,A,4825.2090,N,00428.3367,W,1.52,65.94,050218,,,A*48
$GPGGA,091037.000,4825.2091,N,00428.3364,W,1,06,2.5,134.3,M,52.0,M,,0000*4C
$GPGSA,A,3,02,07,23,05,29,16,,,,,,,4.9,2.5,4.2*33
$GPRMC,091037.000,A,4825.2091,N,00428.3364,W,0.78,65.94,050218,,,A*42
$GPGGA,091038.000,4825.2094,N,00428.3362,W,1,06,2.5,134.3,M,52.0,M,,0000*40
$GPGSA,A,3,02,07,23,05,29,16,,,,,,,4.9,2.5,4.2*33
$GPGSV,3,1,12,02,51,277,09,07,49,144,19,23,28,063,19,05,25,294,22*7D
$GPGSV,3,2,12,29,08,330,37,16,08,049,17,06,53,206,13,09,64,060,04*77
$GPGSV,3,3,12,26,03,022,11,30,30,170,05,04,71,148,,57,10,127,*76
$GPRMC,091038.000,A,4825.2094,N,00428.3362,W,0.60,65.94,050218,,,A*47
$GPGGA,091039.000,4825.2097,N,00428.3360,W,1,06,2.5,134.3,M,52.0,M,,0000*40
$GPGSA,A,3,02,07,23,05,29,16,,,,,,,4.9,2.5,4.2*33
$GPRMC,091039.000,A,4825.2097,N,00428.3360,W,0.72,65.94,050218,,,A*44
$GPGGA,091040.000,4825.2098,N,00428.3361,W,1,06,2.5,134.3,M,52.0,M,,0000*40
$GPGSA,A,3,02,07,23,05,29,16,,,,,,,4.9,2.5,4.2*33
$GPRMC,091040.000,A,4825.2098,N,00428.3361,W,0.19,65.94,050218,,,A*49
$GPGGA,091041.000,4825.2099,N,00428.3361,W,1,06,2.5,134.3,M,52.0,M,,0000*40
$GPGSA,A,3,02,07,23,05,29,16,,,,,,,4.9,2.5,4.2*33
$GPRMC,091041.000,A,4825.2099,N,00428.3361,W,0.05,65.94,050218,,,A*44
$GPGGA,091042.000,4825.2099,N,00428.3361,W,1,05,1.8,134.3,M,52.0,M,,0000*4E
$GPGSA,A,3,07,23,05,29,16,,,,,,,,3.4,1.8,2.9*38
$GPRMC,091042.000,A,4825.2099,N,00428.3361,W,0.22,65.94,050218,,,A*42
$GPGGA,091043.000,4825.2098,N,00428.3362,W,1,06,2.5,134.3,M,52.0,M,,0000*40
$GPGSA,A,3,02,07,23,05,29,16,,,,,,,4.9,2.5,4.2*33
$GPGSV,3,1,12,02,51,277,08,07,49,144,20,23,28,063,19,05,25,294,22*76
$GPGSV,3,2,12,29,08,330,38,16,08,049,18,06,53,206,13,09,64,060,04*77
$GPGSV,3,3,12,26,03,022,11,30,30,170,08,04,71,148,,57,10,127,*7B
$GPRMC,091043.000,A,4825.2098,N,00428.3362,W,0.37,65.94,050218,,,A*45
$GPGGA,091044.000,4825.2098,N,00428.3365,W,1,05,1.8,134.3,M,52.0,M,,0000*4D
$GPGSA,A,3,07,23,05,29,16,,,,,,,,3.4,1.8,2.9*38
$GPRMC,091044.000,A,4825.2098,N,00428.3365,W,0.69,65.94,050218,,,A*4E
$GPGGA,091045.000,4825.2098,N,00428.3364,W,1,05,1.8,134.3,M,52.0,M,,0000*4D
$GPGSA,A,3,07,23,05,29,16,,,,,,,,3.4,1.8,2.9*38
$GPRMC,091045.000,A,4825.2098,N,00428.3364,W,0.67,65.94,050218,,,A*40
$GPGGA,091046.000,4825.2097,N,00428.3367,W,1,06,2.5,134.3,M,52.0,M,,0000*4F
$GPGSA,A,3,02,07,23,05,29,16,,,,,,,4.9,2.5,4.2*33
$GPRMC,091046.000,A,4825.2097,N,00428.3367,W,0.64,65.94,050218,,,A*4C
$GPGGA,091047.000,4825.2098,N,00428.3366,W,1,06,2.5,134.3,M,52.0,M,,0000*40
$GPGSA,A,3,02,07,23,05,29,16,,,,,,,4.9,2.5,4.2*33
$GPRMC,091047.000,A,4825.2098,N,00428.3366,W,0.18,65.94,050218,,,A*48
$GPGGA,091048.000,4825.2099,N,00428.3365,W,1,06,2.5,134.3,M,52.0,M,,0000*4D
$GPGSA,A,3,02,07,23,05,29,16,,,,,,,4.9,2.5,4.2*33
$GPGSV,3,1,12,02,51,277,09,07,49,144,20,23,28,063,19,05,25,294,23*76
$GPGSV,3,2,12,29,08,330,37,16,08,049,18,06,53,206,12,09,64,060,04*79
$GPGSV,3,3,12,26,03,022,04,30,30,170,07,04,71,148,,57,10,127,*70
$GPRMC,091048.000,A,4825.2099,N,00428.3365,W,0.21,65.94,050218,,,A*4F
$GPGGA,091049.000,4825.2100,N,00428.3365,W,1,06,2.5,134.3,M,52.0,M,,0000*4D
$GPGSA,A,3,02,07,23,05,29,16,,,,,,,4.9,2.5,4.2*33
$GPRMC,091049.000,A,4825.2100,N,00428.3365,W,0.14,65.94,050218,,,A*49
$GPGGA,091050.000,4825.2101,N,00428.3365,W,1,06,2.5,134.3,M,52.0,M,,0000*44
$GPGSA,A,3,02,07,23,05,29,16,,,,,,,4.9,2.5,4.2*33
$GPRMC,091050.000,A,4825.2101,N,00428.3365,W,0.09,65.94,050218,,,A*4C
$GPGGA,091051.000,4825.2102,N,00428.3366,W,1,06,2.5,134.3,M,52.0,M,,0000*45
$GPGSA,A,3,02,07,23,05,29,16,,,,,,,4.9,2.5,4.3*32
$GPRMC,091051.000,A,4825.2102,N,00428.3366,W,0.51,65.94,050218,,,A*40
$GPGGA,091052.000,4825.2104,N,00428.3366,W,1,06,2.5,134.3,M,52.0,M,,0000*40
$GPGSA,A,3,02,07,23,05,29,16,,,,,,,5.0,2.5,4.3*3A
$GPRMC,091052.000,A,4825.2104,N,00428.3366,W,0.45,65.94,050218,,,A*40
$GPGGA,091053.000,4825.2105,N,00428.3365,W,1,06,2.5,134.3,M,52.0,M,,0000*43
$GPGSA,A,3,02,07,23,05,29,16,,,,,,,5.0,2.5,4.3*3A
$GPGSV,3,1,12,02,51,277,11,07,49,144,20,23,28,063,18,05,25,294,23*7E
$GPGSV,3,2,12,29,08,330,37,16,08,049,18,06,53,206,10,26,03,022,06*73
$GPGSV,3,3,12,30,30,170,07,04,71,148,,09,64,060,,57,10,127,*7E
$GPRMC,091053.000,A,4825.2105,N,00428.3365,W,1.00,65.94,050218,,,A*43
$GPGGA,091054.000,4825.2106,N,00428.3362,W,1,06,2.5,134.3,M,52.0,M,,0000*40
$GPGSA,A,3,02,07,23,05,29,16,,,,,,,5.0,2.5,4.3*3A
$GPRMC,091054.000,A,4825.2106,N,00428.3362,W,1.33,68.01,050218,,,A*41
$GPGGA,091055.000,4825.2109,N,00428.3357,W,1,06,2.5,134.4,M,52.0,M,,0000*4F
$GPGSA,A,3,02,07,23,05,29,16,,,,,,,5.0,2.5,4.3*3A
$GPRMC,091055.000,A,4825.2109,N,00428.3357,W,1.36,63.79,050218,,,A*48
$GPGGA,091056.000,4825.2111,N,00428.3352,W,1,06,2.5,134.4,M,52.0,M,,0000*40
$GPGSA,A,3,02,07,23,05,29,16,,,,,,,5.0,2.5,4.3*3A
$GPRMC,091056.000,A,4825.2111,N,00428.3352,W,1.60,64.18,050218,,,A*44
$GPGGA,091057.000,4825.2112,N,00428.3346,W,1,06,2.5,134.4,M,52.0,M,,0000*47
$GPGSA,A,3,02,07,23,05,29,16,,,,,,,5.0,2.5,4.3*3A
$GPRMC,091057.000,A,4825.2112,N,00428.3346,W,1.78,67.68,050218,,,A*4E
$GPGGA,091058.000,4825.2113,N,00428.3340,W,1,06,2.5,134.4,M,52.0,M,,0000*4F
$GPGSA,A,3,02,07,23,05,29,16,,,,,,,5.0,2.5,4.3*3A
$GPGSV,3,1,12,02,51,277,12,07,49,144,20,23,28,063,19,05,25,294,22*7D
$GPGSV,3,2,12,29,08,330,38,16,08,049,18,06,53,206,05,26,03,022,07*79
$GPGSV,3,3,12,30,30,170,07,04,71,148,,09,64,060,,57,10,127,*7E
$GPRMC,091058.000,A,4825.2113,N,00428.3340,W,1.95,69.47,050218,,,A*46
$GPGGA,091059.000,4825.2116,N,00428.3336,W,1,06,2.5,134.4,M,52.0,M,,0000*4A
$GPGSA,A,3,02,07,23,05,29,16,,,,,,,5.0,2.5,4.3*3A
$GPRMC,091059.000,A,4825.2116,N,00428.3336,W,1.48,66.72,050218,,,A*4A
$GPGGA,091100.000,4825.2116,N,00428.3337,W,1,06,2.5,134.4,M,52.0,M,,0000*46
$GPGSA,A,3,02,07,23,05,29,16,,,,,,,5.0,2.5,4.3*3A
$GPRMC,091100.000,A,4825.2116,N,00428.3337,W,0.61,66.72,050218,,,A*4C
$GPGGA,091101.000,4825.2117,N,00428.3335,W,1,06,2.5,134.4,M,52.0,M,,0000*44
$GPGSA,A,3,02,07,23,05,29,16,,,,,,,5.0,2.5,4.3*3A
$GPRMC,091101.000,A,4825.2117,N,00428.3335,W,0.63,66.72,050218,,,A*4C
$GPGGA,091102.000,4825.2117,N,00428.3338,W,1,06,2.6,134.4,M,52.0,M,,0000*49
$GPGSA,A,3,02,07,23,05,29,16,,,,,,,5.0,2.6,4.3*39
$GPRMC,091102.000,A,4825.2117,N,00428.3338,W,0.44,66.72,050218,,,A*47
$GPGGA,091103.000,4825.2119,N,00428.3341,W,1,06,2.6,134.5,M,52.0,M,,0000*49
$GPGSA,A,3,02,07,23,05,29,16,,,,,,,5.0,2.6,4.3*39
$GPGSV,3,1,12,02,51,277,11,07,49,144,19,23,28,063,18,05,25,294,21*76
$GPGSV,3,2,12,29,08,330,38,16,08,049,18,06,53,206,04,26,03,022,10*7E
$GPGSV,3,3,12,30,30,170,06,04,71,148,,09,64,060,,57,10,127,*7F
$GPRMC,091103.000,A,4825.2119,N,00428.3341,W,0.68,66.72,050218,,,A*48
$GPGGA,091104.000,4825.2120,N,00428.3343,W,1,06,2.6,134.5,M,52.0,M,,0000*46
$GPGSA,A,3,02,07,23,05,29,16,,,,,,,5.0,2.6,4.3*39
$GPRMC,091104.000,A,4825.2120,N,00428.3343,W,0.79,66.72,050218,,,A*47
$GPGGA,091105.000,4825.2122,N,00428.3342,W,1,06,2.6,134.5,M,52.0,M,,0000*44
$GPGSA,A,3,02,07,23,05,29,16,,,,,,,5.0,2.6,4.3*39
$GPRMC,091105.000,A,4825.2122,N,00428.3342,W,0.99,66.72,050218,,,A*4B
$GPGGA,091106.000,4825.2121,N,00428.3340,W,1,07,1.2,134.4,M,52.0,M,,0000*41
$GPGSA,A,3,02,07,30,23,05,29,16,,,,,,2.7,1.2,2.4*3C
$GPRMC,091106.000,A,4825.2121,N,00428.3340,W,1.11,66.72,050218,,,A*48
$GPGGA,091107.000,4825.2120,N,00428.3338,W,1,07,1.2,134.4,M,52.0,M,,0000*4E
$GPGSA,A,3,02,07,30,23,05,29,16,,,,,,2.7,1.2,2.4*3C
$GPRMC,091107.000,A,4825.2120,N,00428.3338,W,0.99,66.72,050218,,,A*46
$GPGGA,091108.000,4825.2118,N,00428.3338,W,1,07,1.2,134.3,M,52.0,M,,0000*4D
$GPGSA,A,3,02,07,30,23,05,29,16,,,,,,2.7,1.2,2.4*3C
$GPGSV,3,1,12,02,51,277,11,07,49,144,18,30,30,170,10,23,28,063,18*7E
$GPGSV,3,2,12,05,25,294,21,29,08,330,38,16,08,049,18,26,03,022,11*71
$GPGSV,3,3,12,04,71,148,,09,64,060,,06,53,206,,57,10,127,*7B
$GPRMC,091108.000,A,4825.2118,N,00428.3338,W,0.49,66.72,050218,,,A*4F
$GPGGA,091109.000,4825.2116,N,00428.3336,W,1,07,1.2,134.3,M,52.0,M,,0000*4C
$GPGSA,A,3,02,07,30,23,05,29,16,,,,,,2.7,1.2,2.4*3C
$GPRMC,091109.000,A,4825.2116,N,00428.3336,W,0.70,66.72,050218,,,A*44
$GPGGA,091110.000,4825.2112,N,00428.3334,W,1,07,1.2,134.2,M,52.0,M,,0000*43
$GPGSA,A,3,02,07,30,23,05,29,16,,,,,,2.7,1.2,2.4*3C
$GPRMC,091110.000,A,4825.2112,N,00428.3334,W,1.14,66.72,050218,,,A*49
$GPGGA,091111.000,4825.2108,N,00428.3332,W,1,07,1.2,134.2,M,52.0,M,,0000*4F
$GPGSA,A,3,02,07,30,23,05,29,16,,,,,,2.7,1.2,2.4*3C
$GPRMC,091111.000,A,4825.2108,N,00428.3332,W,1.15,66.72,050218,,,A*44
$GPGGA,091112.000,4825.2104,N,00428.3333,W,1,06,1.3,134.2,M,52.0,M,,0000*41
$GPGSA,A,3,07,30,23,05,29,16,,,,,,,3.5,1.3,3.3*3A
$GPRMC,091112.000,A,4825.2104,N,00428.3333,W,0.62,66.72,050218,,,A*4B
$GPGGA,091113.000,4825.2103,N,00428.3334,W,1,07,1.2,134.2,M,52.0,M,,0000*40
$GPGSA,A,3,02,07,30,23,05,29,16,,,,,,2.7,1.2,2.4*3C
$GPGSV,3,1,12,02,51,277,11,07,49,144,17,30,30,170,12,23,28,063,17*7C
$GPGSV,3,2,12,05,25,294,22,29,08,330,38,16,08,049,18,26,03,022,12*71
$GPGSV,3,3,12,04,71,148,,09,64,060,,06,53,206,,57,10,127,*7B
$GPRMC,091113.000,A,4825.2103,N,00428.3334,W,0.20,66.72,050218,,,A*4C
$GPGGA,091114.000,4825.2103,N,00428.3335,W,1,07,1.2,134.2,M,52.0,M,,0000*46
$GPGSA,A,3,02,07,30,23,05,29,16,,,,,,2.7,1.2,2.4*3C
$GPRMC,091114.000,A,4825.2103,N,00428.3335,W,0.27,66.72,050218,,,A*4D
$GPGGA,091115.000,4825.2103,N,00428.3336,W,1,07,1.2,134.2,M,52.0,M,,0000*44
$GPGSA,A,3,02,07,30,23,05,29,16,,,,,,2.7,1.2,2.4*3C
$GPRMC,091115.000,A,4825.2103,N,00428.3336,W,0.32,66.72,050218,,,A*4B
$GPGGA,091116.000,4825.2103,N,00428.3337,W,1,07,1.2,134.2,M,52.0,M,,0000*46
$GPGSA,A,3,02,07,30,23,05,29,16,,,,,,2.7,1.2,2.4*3C
$GPRMC,091116.000,A,4825.2103,N,00428.3337,W,0.29,66.72,050218,,,A*43
$GPGGA,091117.000,4825.2104,N,00428.3339,W,1,07,1.2,134.2,M,52.0,M,,0000*4E
$GPGSA,A,3,02,07,30,23,05,29,16,,,,,,2.7,1.2,2.4*3C
$GPRMC,091117.000,A,4825.2104,N,00428.3339,W,0.48,66.72,050218,,,A*4C
$GPGGA,091118.000,4825.2105,N,00428.3342,W,1,07,1.2,134.2,M,52.0,M,,0000*4C
$GPGSA,A,3,02,07,30,23,05,29,16,,,,,,2.7,1.2,2.4*3C
$GPGSV,3,1,12,02,51,277,10,07,49,144,16,30,30,170,11,23,28,063,15*7D
$GPGSV,3,2,12,05,25,294,22,29,08,330,38,16,08,049,20,26,03,022,13*7B
$GPGSV,3,3,12,04,71,148,,09,64,060,,06,53,206,,57,10,127,*7B
$GPRMC,091118.000,A,4825.2105,N,00428.3342,W,0.73,66.72,050218,,,A*46
$GPGGA,091119.000,4825.2104,N,00428.3348,W,1,07,1.2,134.2,M,52.0,M,,0000*46
$GPGSA,A,3,02,07,30,23,05,29,16,,,,,,2.7,1.2,2.4*3C
$GPRMC,091119.000,A,4825.2104,N,00428.3348,W,0.78,66.72,050218,,,A*47
$GPGGA,091120.000,4825.2103,N,00428.3353,W,1,07,1.2,134.2,M,52.0,M,,0000*41
$GPGSA,A,3,02,07,30,23,05,29,16,,,,,,2.7,1.2,2.4*3C
$GPRMC,091120.000,A,4825.2103,N,00428.3353,W,0.96,66.72,050218,,,A*40
$GPGGA,091121.000,4825.2104,N,00428.3356,W,1,07,1.2,134.2,M,52.0,M,,0000*42
$GPGSA,A,3,02,07,30,23,05,29,16,,,,,,2.7,1.2,2.4*3C
$GPRMC,091121.000,A,4825.2104,N,00428.3356,W,0.69,66.72,050218,,,A*43
$GPGGA,091122.000,4825.2103,N,00428.3360,W,1,06,1.4,134.2,M,52.0,M,,0000*44
$GPGSA,A,3,02,07,30,05,29,16,,,,,,,3.0,1.4,2.6*3F
$GPRMC,091122.000,A,4825.2103,N,00428.3360,W,0.41,66.72,050218,,,A*48
$GPGGA,091123.000,4825.2103,N,00428.3365,W,1,06,1.4,134.2,M,52.0,M,,0000*40
$GPGSA,A,3,02,07,30,05,29,16,,,,,,,3.0,1.4,2.6*3F
$GPGSV,3,1,12,02,51,277,12,07,49,144,15,30,30,170,13,05,25,294,22*79
$GPGSV,3,2,12,29,08,330,38,16,08,049,20,23,28,063,07,26,03,022,12*7E
$GPGSV,3,3,12,04,71,148,,09,64,060,,06,53,206,,57,10,127,*7B
$GPRMC,091123.000,A,4825.2103,N,00428.3365,W,0.55,66.72,050218,,,A*49
$GPGGA,091124.000,4825.2102,N,00428.3370,W,1,06,1.4,134.2,M,52.0,M,,0000*42
$GPGSA,A,3,02,07,30,05,29,16,,,,,,,3.0,1.4,2.6*3F
$GPRMC,091124.000,A,4825.2102,N,00428.3370,W,0.67,66.72,050218,,,A*4A
$GPGGA,091125.000,4825.2102,N,00428.3375,W,1,06,1.4,134.3,M,52.0,M,,0000*47
$GPGSA,A,3,02,07,30,05,29,16,,,,,,,3.0,1.4,2.6*3F
$GPRMC,091125.000,A,4825.2102,N,00428.3375,W,0.56,66.72,050218,,,A*4C
$GPGGA,091126.000,4825.2101,N,00428.3378,W,1,07,1.2,134.3,M,52.0,M,,0000*4D
$GPGSA,A,3,02,07,30,23,05,29,16,,,,,,2.7,1.2,2.4*3C
$GPRMC,091126.000,A,4825.2101,N,00428.3378,W,0.32,66.72,050218,,,A*43
$GPGGA,091127.000,4825.2100,N,00428.3380,W,1,07,1.2,134.3,M,52.0,M,,0000*4A
$GPGSA,A,3,02,07,30,23,05,29,16,,,,,,2.7,1.2,2.4*3C
$GPRMC,091127.000,A,4825.2100,N,00428.3380,W,0.37,66.72,050218,,,A*41
$GPGGA,091128.000,4825.2100,N,00428.3381,W,1,07,1.2,134.2,M,52.0,M,,0000*45
$GPGSA,A,3,02,07,30,23,05,29,16,,,,,,2.7,1.2,2.4*3C
$GPGSV,3,1,12,02,51,277,15,07,49,144,11,30,30,170,12,23,28,063,10*79
$GPGSV,3,2,12,05,25,294,21,29,08,330,38,16,08,049,20,26,03,022,11*7A
$GPGSV,3,3,12,04,71,148,,09,64,060,,06,53,206,,57,10,127,*7B
$GPRMC,091128.000,A,4825.2100,N,00428.3381,W,0.36,66.72,050218,,,A*4E
$GPGGA,091129.000,4825.2100,N,00428.3381,W,1,07,1.2,134.2,M,52.0,M,,0000*44
$GPGSA,A,3,02,07,30,23,05,29,16,,,,,,2.7,1.2,2.4*3C
$GPRMC,091129.000,A,4825.2100,N,00428.3381,W,0.52,66.72,050218,,,A*4D
$GPGGA,091130.000,4825.2100,N,00428.3378,W,1,07,1.2,134.2,M,52.0,M,,0000*4A
$GPGSA,A,3,02,07,30,23,05,29,16,,,,,,2.7,1.2,2.4*3C
$GPRMC,091130.000,A,4825.2100,N,00428.3378,W,0.88,66.72,050218,,,A*44
$GPGGA,091131.000,4825.2099,N,00428.3378,W,1,06,2.6,134.2,M,52.0,M,,0000*4C
$GPGSA,A,3,02,07,23,05,29,16,,,,,,,5.1,2.6,4.4*3F
$GPRMC,091131.000,A,4825.2099,N,00428.3378,W,0.34,66.72,050218,,,A*43
$GPGGA,091132.000,4825.2097,N,00428.3381,W,1,06,2.6,134.2,M,52.0,M,,0000*47
$GPGSA,A,3,02,07,23,05,29,16,,,,,,,5.1,2.6,4.4*3F
$GPRMC,091132.000,A,4825.2097,N,00428.3381,W,0.33,66.72,050218,,,A*4F
